#------------------------------------------------------------
~VERSION INFORMATION
VERS.               2.0  :CWLS LOG ASCII STANDARD - VERSION 2.0
WRAP.                NO  :ONE LINE PER DEPTH STEP
#------------------------------------------------------------
~WELL INFORMATION
STRT.M         0.343000  :FIRST INDEX VALUE
STOP.M          88.9300  :LAST INDEX VALUE
STEP.M        0.0510000  :STEP
NULL.           -999.25  :NULL VALUE
COMP.                    :COMPANY
WELL.                    :WELL
FLD.                     :FIELD
LOC.                     :LOCATION
SRVC.                    :
CTRY. Germany            :COUNTRY
STAT.                    :STATE
CNTY.                    :
DATE.                    :DATE
API.                     :
#------------------------------------------------------------
~CURVE INFORMATION
MD                       :DEPTH
SGRRAW.API               :SGRRaw
SGR.API                  :SGR
SGRRAW_COR.API           :SGRRAW_COR
SGR_COR.API              :SGR_COR
232TH.PPM                :232TH
238U.PPM                 :238U
40K.%                    :40K
GRRAW.API                :GRRaw
GR.API                   :GR
GRRAW_COR.API            :GRRAW_COR
GR_COR.API               :GR_COR
#------------------------------------------------------------
~PARAMETER INFORMATION
001_Bohrungsnummer. 314532  :001_Bohrungsnummer
002_Firma. Geologischer Dienst NRW_Fachbereich 34_Geophysik, Landeserdbebendienst_34.23 Bohrlochgeophysik_De-Greiff-Straße 195_47803 Krefeld  :002_Firma
003_GR.                  :003_GR
004_GR_FEL.         yes  :004_GR_FEL
005_GR_SAL_TEMP.         :005_GR_SAL_TEMP
006_SGR.            yes  :006_SGR
007_CAL3.                :007_CAL3
008_ORI.                 :008_ORI
009_SUSZ.                :009_SUSZ
010_OBI.            yes  :010_OBI
011_STpF.                :011_STpF
012_SAMP.                :012_SAMP
013_Log_Feld.            :013_Log_Feld
014_Log_End.        yes  :014_Log_End
015_Teufenskala.    200  :015_Teufenskala
016_Bohrung. IGL Hastenrath_Albertstraße 57_52249 Eschweiler  :016_Bohrung
017_TK25. 5203 Stolberg (Rheinland)  :017_TK25
018_Land.   Deutschland  :018_Land
019_Koordinaten#1. 32U 307542,00 +/- 5 m  :019_Koordinaten#1
020_Koordinaten#2. UTM 5629294,00 +/- 5 m  :020_Koordinaten#2
021_Koordinaten#3. (UTM 32.Zone ETRS89)  :021_Koordinaten#3
022_Hoehe.       233,00  :022_Hoehe
023_DGPS_Ja.             :023_DGPS_Ja
024_DGPS_Nein.      yes  :024_DGPS_Nein
025_Auftraggeber. Heß, O. (GD NRW)  :025_Auftraggeber
026_Bohrfirma. H. Anger's Söhne_Bohr- und Brunnenbaugesellschaft mbH_Gutenbergstr. 33_37235 Hessisch Lichtenau  :026_Bohrfirma
027_Bohrmeister.   k.A.  :027_Bohrmeister
028_Bohrungsart. Geologische Untersuchung  :028_Bohrungsart
029_Bohrungsverfahren. Kernbohrung  :029_Bohrungsverfahren
030_TeufenBez.      GOK  :030_TeufenBez
031_Messbez.      -1,73  :031_Messbez
032_Bohrbez.        GOK  :032_Bohrbez
033_Bearbeiter.          :033_Bearbeiter
034_Deklination.   1,77  :034_Deklination
100_Stand_ID.       156  :100_Stand_ID
101_Stand_OD.       178  :101_Stand_OD
102_Stand_RL.       1,5  :102_Stand_RL
103_Stand_MA.     Stahl  :103_Stand_MA
104_Stand_vb. -1,02 / 6,12  :104_Stand_vb
105_Stand_MNr.    1 - 3  :105_Stand_MNr
106_StandM_ID.      156  :106_StandM_ID
107_StandM_OD.      178  :107_StandM_OD
108_StandM_RL.     0,11  :108_StandM_RL
109_StandM_MA.    Stahl  :109_StandM_MA
110_StandM_vb. -1,02 / 6,12  :110_StandM_vb
111_StandM_MNr.   1 - 3  :111_StandM_MNr
112_Gest_ID.        126  :112_Gest_ID
113_Gest_OD.        140  :113_Gest_OD
114_Gest_RL.       3,00  :114_Gest_RL
115_Gest_MA.      Stahl  :115_Gest_MA
116_Gest_vb. -1,73 / 90,00  :116_Gest_vb
117_Gest_MNr.         1  :117_Gest_MNr
118_GestM_ID.       126  :118_GestM_ID
119_GestM_OD.       140  :119_GestM_OD
120_GestM_RL.     0,065  :120_GestM_RL
121_GestM_MA.     Stahl  :121_GestM_MA
122_GestM_vb. -1,73 / 90,00  :122_GestM_vb
123_GestM_MNr.        1  :123_GestM_MNr
124_Verr_ID.        ./.  :124_Verr_ID
125_Verr_OD.        ./.  :125_Verr_OD
126_Verr_RL.        ./.  :126_Verr_RL
127_Verr_MA.        ./.  :127_Verr_MA
128_Verr_vb.        ./.  :128_Verr_vb
129_Verr_MNr.       ./.  :129_Verr_MNr
130_oBL_ID.         146  :130_oBL_ID
134_oBL_vb. 6,12 / 90,00  :134_oBL_vb
135_oBL_MNr.      2 - 3  :135_oBL_MNr
136_MeißelA.        PCD  :136_MeißelA
137_MeißelD.        146  :137_MeißelD
138_Sp_Ja.          yes  :138_Sp_Ja
139_Sp_Nein.             :139_Sp_Nein
140_Sp_W.           yes  :140_Sp_W
141_Sp_B.                :141_Sp_B
142_Sp_A.           yes  :142_Sp_A
143_Sp_T.                :143_Sp_T
144_Sp_GW.               :144_Sp_GW
145_Sp_S.                :145_Sp_S
146_SpStop.        k.A.  :146_SpStop
147_SpProbe_Ja.          :147_SpProbe_Ja
148_SpProbe_Nein.   yes  :148_SpProbe_Nein
149_SpProbe_S.           :149_SpProbe_S
150_Dichte.         ./.  :150_Dichte
151_sonstiger_Zusatz. sonstiges  :151_sonstiger_Zusatz
152_sonstige_SPprobe. sonstiges  :152_sonstige_SPprobe
154_VerrM_ID.       ./.  :154_VerrM_ID
155_VerrM_OD.       ./.  :155_VerrM_OD
156_VerrM_RL.       ./.  :156_VerrM_RL
157_VerrM_MA.       ./.  :157_VerrM_MA
158_VerrM_vb.       ./.  :158_VerrM_vb
159_VerrM_MNr.      ./.  :159_VerrM_MNr
200_MessNr#1. 1 aufwärts  :200_MessNr#1
201_Datum#1. 27 Apr 2018  :201_Datum#1
202_Sonde#1.        SGR  :202_Sonde#1
203_RohrÜber#1.   -1,73  :203_RohrÜber#1
204_FlüssigSP#1.  51,04  :204_FlüssigSP#1
205_FlüssigZP#1.   9_45  :205_FlüssigZP#1
206_ErrTiefe#1.   90,00  :206_ErrTiefe#1
207_TiefsterMP#1. 88,93  :207_TiefsterMP#1
208_HöchsterMP#1.  0,34  :208_HöchsterMP#1
209_Messbeginn#1.  9_32  :209_Messbeginn#1
210_MessNr#2. 2 aufwärts  :210_MessNr#2
211_Datum#2. 27 Apr 2018  :211_Datum#2
212_Sonde#2.        OBI  :212_Sonde#2
213_RohrÜber#2.   -1,02  :213_RohrÜber#2
214_FlüssigSP#2.   k.A.  :214_FlüssigSP#2
215_FlüssigZP#2.   k.A.  :215_FlüssigZP#2
216_ErrTiefe#2.   12,50  :216_ErrTiefe#2
217_TiefsterMP#2. 12,43  :217_TiefsterMP#2
218_HöchsterMP#2.  5,44  :218_HöchsterMP#2
219_Messbeginn#2. 12_10  :219_Messbeginn#2
220_MessNr#3. 3 aufwärts  :220_MessNr#3
221_Datum#3. 27 Apr 2018  :221_Datum#3
222_Sonde#3.   GR / FEL  :222_Sonde#3
223_RohrÜber#3.   -1,02  :223_RohrÜber#3
224_FlüssigSP#3.   k.A.  :224_FlüssigSP#3
225_FlüssigZP#3.   k.A.  :225_FlüssigZP#3
226_ErrTiefe#3.   39,06  :226_ErrTiefe#3
227_TiefsterMP#3. 37,99  :227_TiefsterMP#3
228_HöchsterMP#3.  2,80  :228_HöchsterMP#3
229_Messbeginn#3. 12_28  :229_Messbeginn#3
230_MessNr#4.            :230_MessNr#4
231_Datum#4.             :231_Datum#4
232_Sonde#4.             :232_Sonde#4
233_RohrÜber#4.          :233_RohrÜber#4
234_FlüssigSP#4.         :234_FlüssigSP#4
235_FlüssigZP#4.         :235_FlüssigZP#4
236_ErrTiefe#4.          :236_ErrTiefe#4
237_TiefsterMP#4.        :237_TiefsterMP#4
238_HöchsterMP#4.        :238_HöchsterMP#4
239_Messbeginn#4.        :239_Messbeginn#4
240_MessNr#5.            :240_MessNr#5
241_Datum#5.             :241_Datum#5
242_Sonde#5.             :242_Sonde#5
243_RohrÜber#5.          :243_RohrÜber#5
244_FlüssigSP#5.         :244_FlüssigSP#5
245_FlüssigZP#5.         :245_FlüssigZP#5
246_ErrTiefe#5.          :246_ErrTiefe#5
247_TiefsterMP#5.        :247_TiefsterMP#5
248_HöchsterMP#5.        :248_HöchsterMP#5
249_Messbeginn#5.        :249_Messbeginn#5
250_TeufeBM.      90,00  :250_TeufeBM
251_Messwagen. KR-GD 600  :251_Messwagen
252_Messtrupp. Orth / Helbing  :252_Messtrupp
253_Bemerkungen. OBI-Sonde ist bei 12,50 m aufgesetzt._GRFEL-Sonde ist überhalb der Wassersäule bei 39,06 m aufgesetzt, daher keine Wiederstandswerte._Die Stückelung der Schutzverrohrung ist unklar (Überstand 1,02 m gemessen, Ende Schneidschuh 6,12 m ergibt sich durch_OBI)  :253_Bemerkungen
254_Korrekturen. GR_COR / SGR_COR_ Von Bohrlocheinflüssen korrigiertes GR-Log nach (Lehmann, 2010)  :254_Korrekturen
259_Anmerkung. Interpretationen und Beurteilungen der von uns durchgeführten Messungen werden von unserem Personal nach bestem Wissen und Gewissen durchgeführt,_ohne jedoch für die Genauigkeit bzw. Richtigkeit zu garantieren. Ebenso lehnen wir jegliche Haftung oder Verantwortung für irgendwelche Verluste, Kosten oder Schäden ab, die unserem Auftraggeber dadurch entstehen können.  :259_Anmerkung
300_Run#1.            1  :300_Run#1
301_Trip#1.         ./.  :301_Trip#1
302_Gerätedaten#1.  SGR                 LogIn 2901               k.A.                      191 mm  :302_Gerätedaten#1
303_Run#2.            2  :303_Run#2
304_Trip#2.         ./.  :304_Trip#2
305_Gerätedaten#2.  OBI                 ALT QL40-OBI-2G 151105   k.A.                      86.6 mm  :305_Gerätedaten#2
306_Run#3.            3  :306_Run#3
307_Trip#3.         ./.  :307_Trip#3
308_Gerätedaten#3.  GR / FEL            LogIn GaFEL 1125004      05.11.2015 / 22.10.2015   157 / 797 mm  :308_Gerätedaten#3
309_Run#4.               :309_Run#4
310_Trip#4.              :310_Trip#4
311_Gerätedaten#4.       :311_Gerätedaten#4
312_Run#5.               :312_Run#5
313_Trip#5.              :313_Trip#5
314_Gerätedaten#5.       :314_Gerätedaten#5
315_Run#6.               :315_Run#6
316_Trip#6.              :316_Trip#6
317_Gerätedaten#6.       :317_Gerätedaten#6
318_Run#7.               :318_Run#7
319_Trip#7.              :319_Trip#7
320_Gerätedaten#7.       :320_Gerätedaten#7
321_Run#8.               :321_Run#8
322_Trip#8.              :322_Trip#8
323_Gerätedaten#8.       :323_Gerätedaten#8
324_Run#9.               :324_Run#9
325_Trip#9.              :325_Trip#9
326_Gerätedaten#9.       :326_Gerätedaten#9
327_Run#10.              :327_Run#10
328_Trip#10.             :328_Trip#10
329_Gerätedaten#10.      :329_Gerätedaten#10
330_Gerätedaten#0.  GERÄT               SONDEN NR.               LETZTE KALIBRIERUNG       ABSTAND TIEFSTER MESSPUNKT  :330_Gerätedaten#0
#------------------------------------------------------------
~OTHER
#------------------------------------------------------------
~A   MD      SGRRAW         SGR  SGRRAW_COR     SGR_COR       232TH        238U         40K       GRRAW          GR   GRRAW_COR      GR_COR
# ...
     68.8870     10.4988     9.20179     13.6332     11.9489    0.642596    0.355025   0.0922596    -999.250    -999.250    -999.250    -999.250
     68.9380     10.0552     9.42809     13.0571     12.2428    0.573518    0.422616   0.0875718    -999.250    -999.250    -999.250    -999.250
     68.9890     8.86545     9.63585     11.5122     12.5126    0.497799    0.491120   0.0874925    -999.250    -999.250    -999.250    -999.250
     69.0400     8.87513     9.78946     11.5248     12.7121    0.277631    0.645342   0.0921605    -999.250    -999.250    -999.250    -999.250
     69.0910     7.73352     9.87091     10.0423     12.8178    0.111318    0.724767    0.110367    -999.250    -999.250    -999.250    -999.250
     69.1420     11.0156     9.95331     14.3042     12.9248   0.0615361    0.690753    0.132438    -999.250    -999.250    -999.250    -999.250
     69.1930     13.8734     9.86431     18.0152     12.8093   0.0236670    0.641575    0.147007    -999.250    -999.250    -999.250    -999.250
     69.2440     10.5798     9.52340     13.7384     12.3666  0.00217046    0.591407    0.147899    -999.250    -999.250    -999.250    -999.250
     69.2950     10.1033     9.03308     13.1196     11.7299    0.000000    0.552913    0.133915    -999.250    -999.250    -999.250    -999.250
     69.3460     5.74669     8.37424     7.46230     10.8743    0.000000    0.560317    0.111705    -999.250    -999.250    -999.250    -999.250
     69.3970     7.36302     7.85685     9.56120     10.2025  0.00139742    0.585490   0.0834985    -999.250    -999.250    -999.250    -999.250
     69.4480     6.17346     7.50279     8.01650     9.74273   0.0143310    0.628572   0.0598117    -999.250    -999.250    -999.250    -999.250
     69.4990     8.17887     7.36998     10.6207     9.57027   0.0377106    0.675619   0.0421704    -999.250    -999.250    -999.250    -999.250
     69.5500     5.72600     7.41689     7.43550     9.63119    0.120981    0.706927   0.0318037    -999.250    -999.250    -999.250    -999.250
     69.6010     5.27464     7.75664     6.84940     10.0724    0.322894    0.666997   0.0269078    -999.250    -999.250    -999.250    -999.250
     69.6520     7.71015     8.36487     10.0120     10.8622    0.482319    0.682438   0.0211001    -999.250    -999.250    -999.250    -999.250
     69.7030     12.8724     9.09773     16.7154     11.8138    0.629296    0.710505   0.0121011    -999.250    -999.250    -999.250    -999.250
     69.7540     9.29632     9.63513     12.0717     12.5117    0.757988    0.773964    0.000000    -999.250    -999.250    -999.250    -999.250
     69.8050     8.95461     10.1301     11.6280     13.1544    0.881704    0.790009    0.000000    -999.250    -999.250    -999.250    -999.250
     69.8560     11.4141     10.5807     14.8217     13.7395     1.00895    0.783894    0.000000    -999.250    -999.250    -999.250    -999.250
     69.9070     10.1116     10.8140     13.1304     14.0425     1.11198    0.752666    0.000000    -999.250    -999.250    -999.250    -999.250
     69.9580     14.1601     10.9692     18.3876     14.2440    0.733607     1.00295    0.000000    -999.250    -999.250    -999.250    -999.250
     70.0090     11.3452     10.6867     14.7323     13.8771    0.702279    0.989365    0.000000    -999.250    -999.250    -999.250    -999.250
     70.0600     10.8922     10.3799     14.1440     13.4788    0.611090    0.976461    0.000000    -999.250    -999.250    -999.250    -999.250
     70.1110     8.13159     9.87403     10.5593     12.8219    0.537889    0.947958    0.000000    -999.250    -999.250    -999.250    -999.250
     70.1620     9.28107     9.42888     12.0519     12.2439    0.529920    0.848929    0.000000    -999.250    -999.250    -999.250    -999.250
     70.2130     12.1339     8.89986     15.7565     11.5569    0.422695    0.823944  0.000594648    -999.250    -999.250    -999.250    -999.250
     70.2640     4.85557     8.06897     6.30520     10.4779    0.156937    0.911516    0.000000    -999.250    -999.250    -999.250    -999.250
     70.3150     8.94352     7.57681     11.6136     9.83884    0.000000    0.946015    0.000000    -999.250    -999.250    -999.250    -999.250
     70.3660     5.32142     7.07138     6.91010     9.18252    0.000000    0.869821  0.00167492    -999.250    -999.250    -999.250    -999.250
     70.4170     9.49375     6.65128     12.3281     8.63700   0.0515560    0.742596   0.0135481    -999.250    -999.250    -999.250    -999.250
     70.4680     4.12887     6.03057     5.36150     7.83097   0.0859464    0.640634   0.0227155    -999.250    -999.250    -999.250    -999.250
     70.5190     3.28885     5.55043     4.27070     7.20749   0.0924677    0.576214   0.0271853    -999.250    -999.250    -999.250    -999.250
     70.5700     7.74527     5.33817     10.0576     6.93185   0.0800099    0.538880   0.0271159    -999.250    -999.250    -999.250    -999.250
     70.6210     6.06448     4.90985     7.87500     6.37566   0.0603865    0.511397   0.0256293    -999.250    -999.250    -999.250    -999.250
     70.6720     2.82237     4.58504     3.66500     5.95389   0.0425173    0.489019   0.0244400    -999.250    -999.250    -999.250    -999.250
     70.7230     3.63371     4.41937     4.71850     5.73875   0.0422497    0.463994   0.0241625    -999.250    -999.250    -999.250    -999.250
     70.7740     4.03746     4.39381     5.24280     5.70556   0.0696729    0.429326   0.0248563    -999.250    -999.250    -999.250    -999.250
     70.8250     4.08717     4.39296     5.30740     5.70446    0.127374    0.391804   0.0257879    -999.250    -999.250    -999.250    -999.250
     70.8760     2.85706     4.44785     3.71000     5.77574    0.182745    0.348196   0.0277701    -999.250    -999.250    -999.250    -999.250
     70.9270     6.91186     4.66073     8.97540     6.05218    0.211814    0.309970   0.0319227    -999.250    -999.250    -999.250    -999.250
     70.9780     6.05205     4.75954     7.85890     6.18049    0.192339    0.287423   0.0384142    -999.250    -999.250    -999.250    -999.250
     71.0290     2.81775     4.67974     3.65900     6.07688    0.125510    0.285035   0.0473042    -999.250    -999.250    -999.250    -999.250
     71.0800     4.83570     4.62338     6.27940     6.00369   0.0405550    0.290277   0.0567988    -999.250    -999.250    -999.250    -999.250
     71.1310     6.89194     4.52383     8.94950     5.87442    0.000000    0.271923   0.0649058    -999.250    -999.250    -999.250    -999.250
     71.1820     3.65670     4.29094     4.74840     5.57200    0.000000    0.225282   0.0715559    -999.250    -999.250    -999.250    -999.250
     71.2330     3.65268     4.08305     4.74320     5.30204   0.0127849    0.194499   0.0711793    -999.250    -999.250    -999.250    -999.250
     71.2840     2.85194     3.94419     3.70340     5.12172   0.0357879    0.185451   0.0657978    -999.250    -999.250    -999.250    -999.250
     71.3350     2.84527     3.90560     3.69470     5.07160   0.0895143    0.162061   0.0605054    -999.250    -999.250    -999.250    -999.250
     71.3860     4.07927     3.87718     5.29710     5.03469    0.203459    0.101110   0.0573934    -999.250    -999.250    -999.250    -999.250
     71.4370     4.89648     3.92500     6.35830     5.09680    0.316987   0.0456690   0.0529831    -999.250    -999.250    -999.250    -999.250
     71.4880     5.35630     4.00495     6.95540     5.20062    0.396035   0.0227651   0.0463032    -999.250    -999.250    -999.250    -999.250
     71.5390     2.87854     3.96768     3.73790     5.15222    0.427096   0.0316650   0.0371655    -999.250    -999.250    -999.250    -999.250
     71.5900     3.26161     3.95096     4.23540     5.13052    0.427839   0.0538156   0.0288305    -999.250    -999.250    -999.250    -999.250
     71.6410     3.23882     3.95576     4.20580     5.13677    0.490456   0.0220515   0.0254113    -999.250    -999.250    -999.250    -999.250
     71.6920     6.06780     4.05237     7.87930     5.26223    0.707661    0.000000  0.00707631    -999.250    -999.250    -999.250    -999.250
