#------------------------------------------------------------
~VERSION INFORMATION
VERS.               2.0  :CWLS LOG ASCII STANDARD - VERSION 2.0
WRAP.                NO  :ONE LINE PER DEPTH STEP
#------------------------------------------------------------
~WELL INFORMATION
STRT.M         0.343000  :FIRST INDEX VALUE
STOP.M          88.9300  :LAST INDEX VALUE
STEP.M        0.0510000  :STEP
NULL.           -999.25  :NULL VALUE
COMP.                    :COMPANY
WELL.                    :WELL
FLD.                     :FIELD
LOC.                     :LOCATION
SRVC.                    :
CTRY. Germany            :COUNTRY
STAT.                    :STATE
CNTY.                    :
DATE.                    :DATE
API.                     :
#------------------------------------------------------------
~CURVE INFORMATION
MD                       :DEPTH
SGRRAW.API               :SGRRaw
SGR.API                  :SGR
SGRRAW_COR.API           :SGRRAW_COR
SGR_COR.API              :SGR_COR
232TH.PPM                :232TH
238U.PPM                 :238U
40K.%                    :40K
GRRAW.API                :GRRaw
GR.API                   :GR
GRRAW_COR.API            :GRRAW_COR
GR_COR.API               :GR_COR
#------------------------------------------------------------
~PARAMETER INFORMATION
001_Bohrungsnummer. 314532  :001_Bohrungsnummer
002_Firma. Geologischer Dienst NRW_Fachbereich 34_Geophysik, Landeserdbebendienst_34.23 Bohrlochgeophysik_De-Greiff-Straße 195_47803 Krefeld  :002_Firma
003_GR.                  :003_GR
004_GR_FEL.         yes  :004_GR_FEL
005_GR_SAL_TEMP.         :005_GR_SAL_TEMP
006_SGR.            yes  :006_SGR
007_CAL3.                :007_CAL3
008_ORI.                 :008_ORI
009_SUSZ.                :009_SUSZ
010_OBI.            yes  :010_OBI
011_STpF.                :011_STpF
012_SAMP.                :012_SAMP
013_Log_Feld.            :013_Log_Feld
014_Log_End.        yes  :014_Log_End
015_Teufenskala.    200  :015_Teufenskala
016_Bohrung. IGL Hastenrath_Albertstraße 57_52249 Eschweiler  :016_Bohrung
017_TK25. 5203 Stolberg (Rheinland)  :017_TK25
018_Land.   Deutschland  :018_Land
019_Koordinaten#1. 32U 307542,00 +/- 5 m  :019_Koordinaten#1
020_Koordinaten#2. UTM 5629294,00 +/- 5 m  :020_Koordinaten#2
021_Koordinaten#3. (UTM 32.Zone ETRS89)  :021_Koordinaten#3
022_Hoehe.       233,00  :022_Hoehe
023_DGPS_Ja.             :023_DGPS_Ja
024_DGPS_Nein.      yes  :024_DGPS_Nein
025_Auftraggeber. Heß, O. (GD NRW)  :025_Auftraggeber
026_Bohrfirma. H. Anger's Söhne_Bohr- und Brunnenbaugesellschaft mbH_Gutenbergstr. 33_37235 Hessisch Lichtenau  :026_Bohrfirma
027_Bohrmeister.   k.A.  :027_Bohrmeister
028_Bohrungsart. Geologische Untersuchung  :028_Bohrungsart
029_Bohrungsverfahren. Kernbohrung  :029_Bohrungsverfahren
030_TeufenBez.      GOK  :030_TeufenBez
031_Messbez.      -1,73  :031_Messbez
032_Bohrbez.        GOK  :032_Bohrbez
033_Bearbeiter.          :033_Bearbeiter
034_Deklination.   1,77  :034_Deklination
100_Stand_ID.       156  :100_Stand_ID
101_Stand_OD.       178  :101_Stand_OD
102_Stand_RL.       1,5  :102_Stand_RL
103_Stand_MA.     Stahl  :103_Stand_MA
104_Stand_vb. -1,02 / 6,12  :104_Stand_vb
105_Stand_MNr.    1 - 3  :105_Stand_MNr
106_StandM_ID.      156  :106_StandM_ID
107_StandM_OD.      178  :107_StandM_OD
108_StandM_RL.     0,11  :108_StandM_RL
109_StandM_MA.    Stahl  :109_StandM_MA
110_StandM_vb. -1,02 / 6,12  :110_StandM_vb
111_StandM_MNr.   1 - 3  :111_StandM_MNr
112_Gest_ID.        126  :112_Gest_ID
113_Gest_OD.        140  :113_Gest_OD
114_Gest_RL.       3,00  :114_Gest_RL
115_Gest_MA.      Stahl  :115_Gest_MA
116_Gest_vb. -1,73 / 90,00  :116_Gest_vb
117_Gest_MNr.         1  :117_Gest_MNr
118_GestM_ID.       126  :118_GestM_ID
119_GestM_OD.       140  :119_GestM_OD
120_GestM_RL.     0,065  :120_GestM_RL
121_GestM_MA.     Stahl  :121_GestM_MA
122_GestM_vb. -1,73 / 90,00  :122_GestM_vb
123_GestM_MNr.        1  :123_GestM_MNr
124_Verr_ID.        ./.  :124_Verr_ID
125_Verr_OD.        ./.  :125_Verr_OD
126_Verr_RL.        ./.  :126_Verr_RL
127_Verr_MA.        ./.  :127_Verr_MA
128_Verr_vb.        ./.  :128_Verr_vb
129_Verr_MNr.       ./.  :129_Verr_MNr
130_oBL_ID.         146  :130_oBL_ID
134_oBL_vb. 6,12 / 90,00  :134_oBL_vb
135_oBL_MNr.      2 - 3  :135_oBL_MNr
136_MeißelA.        PCD  :136_MeißelA
137_MeißelD.        146  :137_MeißelD
138_Sp_Ja.          yes  :138_Sp_Ja
139_Sp_Nein.             :139_Sp_Nein
140_Sp_W.           yes  :140_Sp_W
141_Sp_B.                :141_Sp_B
142_Sp_A.           yes  :142_Sp_A
143_Sp_T.                :143_Sp_T
144_Sp_GW.               :144_Sp_GW
145_Sp_S.                :145_Sp_S
146_SpStop.        k.A.  :146_SpStop
147_SpProbe_Ja.          :147_SpProbe_Ja
148_SpProbe_Nein.   yes  :148_SpProbe_Nein
149_SpProbe_S.           :149_SpProbe_S
150_Dichte.         ./.  :150_Dichte
151_sonstiger_Zusatz. sonstiges  :151_sonstiger_Zusatz
152_sonstige_SPprobe. sonstiges  :152_sonstige_SPprobe
154_VerrM_ID.       ./.  :154_VerrM_ID
155_VerrM_OD.       ./.  :155_VerrM_OD
156_VerrM_RL.       ./.  :156_VerrM_RL
157_VerrM_MA.       ./.  :157_VerrM_MA
158_VerrM_vb.       ./.  :158_VerrM_vb
159_VerrM_MNr.      ./.  :159_VerrM_MNr
200_MessNr#1. 1 aufwärts  :200_MessNr#1
201_Datum#1. 27 Apr 2018  :201_Datum#1
202_Sonde#1.        SGR  :202_Sonde#1
203_RohrÜber#1.   -1,73  :203_RohrÜber#1
204_FlüssigSP#1.  51,04  :204_FlüssigSP#1
205_FlüssigZP#1.   9_45  :205_FlüssigZP#1
206_ErrTiefe#1.   90,00  :206_ErrTiefe#1
207_TiefsterMP#1. 88,93  :207_TiefsterMP#1
208_HöchsterMP#1.  0,34  :208_HöchsterMP#1
209_Messbeginn#1.  9_32  :209_Messbeginn#1
210_MessNr#2. 2 aufwärts  :210_MessNr#2
211_Datum#2. 27 Apr 2018  :211_Datum#2
212_Sonde#2.        OBI  :212_Sonde#2
213_RohrÜber#2.   -1,02  :213_RohrÜber#2
214_FlüssigSP#2.   k.A.  :214_FlüssigSP#2
215_FlüssigZP#2.   k.A.  :215_FlüssigZP#2
216_ErrTiefe#2.   12,50  :216_ErrTiefe#2
217_TiefsterMP#2. 12,43  :217_TiefsterMP#2
218_HöchsterMP#2.  5,44  :218_HöchsterMP#2
219_Messbeginn#2. 12_10  :219_Messbeginn#2
220_MessNr#3. 3 aufwärts  :220_MessNr#3
221_Datum#3. 27 Apr 2018  :221_Datum#3
222_Sonde#3.   GR / FEL  :222_Sonde#3
223_RohrÜber#3.   -1,02  :223_RohrÜber#3
224_FlüssigSP#3.   k.A.  :224_FlüssigSP#3
225_FlüssigZP#3.   k.A.  :225_FlüssigZP#3
226_ErrTiefe#3.   39,06  :226_ErrTiefe#3
227_TiefsterMP#3. 37,99  :227_TiefsterMP#3
228_HöchsterMP#3.  2,80  :228_HöchsterMP#3
229_Messbeginn#3. 12_28  :229_Messbeginn#3
230_MessNr#4.            :230_MessNr#4
231_Datum#4.             :231_Datum#4
232_Sonde#4.             :232_Sonde#4
233_RohrÜber#4.          :233_RohrÜber#4
234_FlüssigSP#4.         :234_FlüssigSP#4
235_FlüssigZP#4.         :235_FlüssigZP#4
236_ErrTiefe#4.          :236_ErrTiefe#4
237_TiefsterMP#4.        :237_TiefsterMP#4
238_HöchsterMP#4.        :238_HöchsterMP#4
239_Messbeginn#4.        :239_Messbeginn#4
240_MessNr#5.            :240_MessNr#5
241_Datum#5.             :241_Datum#5
242_Sonde#5.             :242_Sonde#5
243_RohrÜber#5.          :243_RohrÜber#5
244_FlüssigSP#5.         :244_FlüssigSP#5
245_FlüssigZP#5.         :245_FlüssigZP#5
246_ErrTiefe#5.          :246_ErrTiefe#5
247_TiefsterMP#5.        :247_TiefsterMP#5
248_HöchsterMP#5.        :248_HöchsterMP#5
249_Messbeginn#5.        :249_Messbeginn#5
250_TeufeBM.      90,00  :250_TeufeBM
251_Messwagen. KR-GD 600  :251_Messwagen
252_Messtrupp. Orth / Helbing  :252_Messtrupp
253_Bemerkungen. OBI-Sonde ist bei 12,50 m aufgesetzt._GRFEL-Sonde ist überhalb der Wassersäule bei 39,06 m aufgesetzt, daher keine Wiederstandswerte._Die Stückelung der Schutzverrohrung ist unklar (Überstand 1,02 m gemessen, Ende Schneidschuh 6,12 m ergibt sich durch_OBI)  :253_Bemerkungen
254_Korrekturen. GR_COR / SGR_COR_ Von Bohrlocheinflüssen korrigiertes GR-Log nach (Lehmann, 2010)  :254_Korrekturen
259_Anmerkung. Interpretationen und Beurteilungen der von uns durchgeführten Messungen werden von unserem Personal nach bestem Wissen und Gewissen durchgeführt,_ohne jedoch für die Genauigkeit bzw. Richtigkeit zu garantieren. Ebenso lehnen wir jegliche Haftung oder Verantwortung für irgendwelche Verluste, Kosten oder Schäden ab, die unserem Auftraggeber dadurch entstehen können.  :259_Anmerkung
300_Run#1.            1  :300_Run#1
301_Trip#1.         ./.  :301_Trip#1
302_Gerätedaten#1.  SGR                 LogIn 2901               k.A.                      191 mm  :302_Gerätedaten#1
303_Run#2.            2  :303_Run#2
304_Trip#2.         ./.  :304_Trip#2
305_Gerätedaten#2.  OBI                 ALT QL40-OBI-2G 151105   k.A.                      86.6 mm  :305_Gerätedaten#2
306_Run#3.            3  :306_Run#3
307_Trip#3.         ./.  :307_Trip#3
308_Gerätedaten#3.  GR / FEL            LogIn GaFEL 1125004      05.11.2015 / 22.10.2015   157 / 797 mm  :308_Gerätedaten#3
309_Run#4.               :309_Run#4
310_Trip#4.              :310_Trip#4
311_Gerätedaten#4.       :311_Gerätedaten#4
312_Run#5.               :312_Run#5
313_Trip#5.              :313_Trip#5
314_Gerätedaten#5.       :314_Gerätedaten#5
315_Run#6.               :315_Run#6
316_Trip#6.              :316_Trip#6
317_Gerätedaten#6.       :317_Gerätedaten#6
318_Run#7.               :318_Run#7
319_Trip#7.              :319_Trip#7
320_Gerätedaten#7.       :320_Gerätedaten#7
321_Run#8.               :321_Run#8
322_Trip#8.              :322_Trip#8
323_Gerätedaten#8.       :323_Gerätedaten#8
324_Run#9.               :324_Run#9
325_Trip#9.              :325_Trip#9
326_Gerätedaten#9.       :326_Gerätedaten#9
327_Run#10.              :327_Run#10
328_Trip#10.             :328_Trip#10
329_Gerätedaten#10.      :329_Gerätedaten#10
330_Gerätedaten#0.  GERÄT               SONDEN NR.               LETZTE KALIBRIERUNG       ABSTAND TIEFSTER MESSPUNKT  :330_Gerätedaten#0
#------------------------------------------------------------
~OTHER
#------------------------------------------------------------
~A   MD      SGRRAW         SGR  SGRRAW_COR     SGR_COR       232TH        238U         40K       GRRAW          GR   GRRAW_COR      GR_COR
# ...
     80.3110     12.9269     11.7638     16.7862     15.2758    0.342785     1.15722   0.0374430    -999.250    -999.250    -999.250    -999.250
     80.3620     13.8523     12.0552     17.9879     15.6543    0.510000     1.10265   0.0328345    -999.250    -999.250    -999.250    -999.250
     80.4130     10.9887     12.1180     14.2687     15.7358    0.670005     1.04928   0.0201505    -999.250    -999.250    -999.250    -999.250
     80.4640     12.2058     12.0452     15.8498     15.6412    0.787512     1.01804  0.00384539    -999.250    -999.250    -999.250    -999.250
     80.5150     13.6639     11.8293     17.7432     15.3608    0.824360    0.954301    0.000000    -999.250    -999.250    -999.250    -999.250
     80.5660     11.6961     11.4491     15.1876     14.8671    0.793731    0.927754    0.000000    -999.250    -999.250    -999.250    -999.250
     80.6170     10.8537     11.0733     14.0940     14.3791    0.700981    0.927561    0.000000    -999.250    -999.250    -999.250    -999.250
     80.6680     9.73648     10.7702     12.6433     13.9855    0.603419    0.930445  0.00784935    -999.250    -999.250    -999.250    -999.250
     80.7190     8.97079     10.7024     11.6488     13.8975    0.523362    0.903968   0.0269050    -999.250    -999.250    -999.250    -999.250
     80.7700     9.52971     10.7001     12.3748     13.8945    0.491120    0.902239   0.0447373    -999.250    -999.250    -999.250    -999.250
     80.8210     12.0648     10.9246     15.6667     14.1860    0.512626    0.889712   0.0591377    -999.250    -999.250    -999.250    -999.250
     80.8720     10.6490     11.1415     13.8279     14.4677    0.579960    0.837748   0.0699587    -999.250    -999.250    -999.250    -999.250
     80.9230     11.3983     11.3513     14.8013     14.7400    0.683726    0.765143   0.0789197    -999.250    -999.250    -999.250    -999.250
     80.9740     14.0907     11.4212     18.2974     14.8308    0.779326    0.675074   0.0829831    -999.250    -999.250    -999.250    -999.250
     81.0250     9.31232     11.2601     12.0916     14.6215    0.851634    0.606670   0.0818336    -999.250    -999.250    -999.250    -999.250
     81.0760     15.0166     11.0771     19.4997     14.3840    0.869692    0.562408   0.0742120    -999.250    -999.250    -999.250    -999.250
     81.1270     10.1954     10.5818     13.2392     13.7408    0.843676    0.546808   0.0636769    -999.250    -999.250    -999.250    -999.250
     81.1780     9.34246     10.1600     12.1315     13.1931    0.797370    0.538851   0.0532126    -999.250    -999.250    -999.250    -999.250
     81.2290     6.90900     9.82037     8.97170     12.7521    0.787581    0.524281   0.0457681    -999.250    -999.250    -999.250    -999.250
     81.2800     10.1255     9.68322     13.1484     12.5740    0.810723    0.501050   0.0411199    -999.250    -999.250    -999.250    -999.250
     81.3310     8.86926     9.52118     11.5169     12.3636    0.845713    0.475504   0.0403965    -999.250    -999.250    -999.250    -999.250
     81.3820     9.25952     9.47375     12.0240     12.3021    0.886376    0.445772   0.0433593    -999.250    -999.250    -999.250    -999.250
     81.4330     10.9716     9.66558     14.2471     12.5511    0.917601    0.429088   0.0479385    -999.250    -999.250    -999.250    -999.250
     81.4840     10.9943     9.82505     14.2766     12.7582    0.904578    0.429108   0.0531120    -999.250    -999.250    -999.250    -999.250
     81.5350     9.70867     9.91742     12.6069     12.8782    0.830229    0.455655   0.0601773    -999.250    -999.250    -999.250    -999.250
     81.5860     5.26453     10.0854     6.83620     13.0963    0.708850    0.517879   0.0715956    -999.250    -999.250    -999.250    -999.250
     81.6370     12.5521     10.6300     16.2995     13.8036    0.584172    0.591793   0.0852725    -999.250    -999.250    -999.250    -999.250
     81.6880     12.1157     11.0870     15.7328     14.3970    0.416834    0.718643   0.0977880    -999.250    -999.250    -999.250    -999.250
     81.7390     10.5827     11.6116     13.7422     15.0783    0.272775    0.868483    0.110872    -999.250    -999.250    -999.250    -999.250
     81.7900     10.2307     12.3629     13.2850     16.0540    0.203112    0.995034    0.122289    -999.250    -999.250    -999.250    -999.250
     81.8410     15.2293     13.2941     19.7769     17.2633    0.266829     1.06143    0.129493    -999.250    -999.250    -999.250    -999.250
     81.8920     13.9640     14.0117     18.1329     18.1950    0.499355     1.02844    0.127829    -999.250    -999.250    -999.250    -999.250
     81.9430     13.0790     14.5517     16.9836     18.8963    0.855520    0.914806    0.117433    -999.250    -999.250    -999.250    -999.250
     81.9940     17.4080     15.1269     22.6060     19.6432     1.18340    0.790989    0.102103    -999.250    -999.250    -999.250    -999.250
     82.0450     18.3542     15.6425     23.8338     20.3126     1.44665    0.680862   0.0943508    -999.250    -999.250    -999.250    -999.250
     82.0960     15.9444     15.9911     20.7045     20.7654     1.67562    0.523528   0.0990188    -999.250    -999.250    -999.250    -999.250
     82.1470     13.0577     16.3112     16.9555     21.1809     1.86647    0.338382    0.118609    -999.250    -999.250    -999.250    -999.250
     82.1980     16.2722     16.8235     21.1302     21.8462     2.02595    0.152388    0.150981    -999.250    -999.250    -999.250    -999.250
     82.2490     14.8735     17.4564     19.3140     22.6681     2.12630    0.000000    0.187820    -999.250    -999.250    -999.250    -999.250
     82.3000     20.5509     18.0662     26.6874     23.4599     2.09610    0.000000    0.219777    -999.250    -999.250    -999.250    -999.250
     82.3510     20.1185     18.5668     26.1249     24.1099     2.08728    0.000000    0.246888    -999.250    -999.250    -999.250    -999.250
     82.4020     20.6277     19.1625     26.7860     24.8835     2.13769    0.000000    0.266888    -999.250    -999.250    -999.250    -999.250
     82.4530     17.8066     19.8122     23.1222     25.7272     2.21843   0.0204925    0.272615    -999.250    -999.250    -999.250    -999.250
     82.5040     22.9230     20.3068     29.7667     26.3694     2.22315    0.187552    0.259970    -999.250    -999.250    -999.250    -999.250
     82.5550     15.8348     20.5947     20.5623     26.7431     2.21480    0.358137    0.232388    -999.250    -999.250    -999.250    -999.250
     82.6060     19.7640     20.7484     25.6653     26.9426     2.22848    0.490802    0.202056    -999.250    -999.250    -999.250    -999.250
     82.6570     25.3080     20.6841     32.8636     26.8591     2.21986    0.561120    0.174678    -999.250    -999.250    -999.250    -999.250
     82.7080     27.2536     19.9678     35.3901     25.9289     2.12425    0.572814    0.153528    -999.250    -999.250    -999.250    -999.250
     82.7590     16.9705     18.5475     22.0349     24.0845     1.92160    0.554026    0.140378    -999.250    -999.250    -999.250    -999.250
     82.8100     22.1320     16.8806     28.7394     21.9200     1.61941    0.522686    0.132795    -999.250    -999.250    -999.250    -999.250
     82.8610     11.9670     14.8564     15.5398     19.2915     1.26832    0.478929    0.126036    -999.250    -999.250    -999.250    -999.250
     82.9120     11.1294     12.8329     14.4519     16.6639    0.952049    0.432326    0.116909    -999.250    -999.250    -999.250    -999.250
     82.9630     7.02595     10.9883     9.12350     14.2687    0.722636    0.406769    0.104519    -999.250    -999.250    -999.250    -999.250
     83.0140     8.53465     9.72623     11.0826     12.6299    0.562200    0.414093   0.0854410    -999.250    -999.250    -999.250    -999.250
     83.0650     7.25671     8.94863     9.42290     11.6202    0.457508    0.479802   0.0632639    -999.250    -999.250    -999.250    -999.250
     83.1160     8.47866     8.43040     11.0099     10.9472    0.370158    0.597165   0.0406244    -999.250    -999.250    -999.250    -999.250
