#------------------------------------------------------------
~VERSION INFORMATION
VERS.               2.0  :CWLS LOG ASCII STANDARD - VERSION 2.0
WRAP.                NO  :ONE LINE PER DEPTH STEP
#------------------------------------------------------------
~WELL INFORMATION
STRT.M         0.343000  :FIRST INDEX VALUE
STOP.M          88.9300  :LAST INDEX VALUE
STEP.M        0.0510000  :STEP
NULL.           -999.25  :NULL VALUE
COMP.                    :COMPANY
WELL.                    :WELL
FLD.                     :FIELD
LOC.                     :LOCATION
SRVC.                    :
CTRY. Germany            :COUNTRY
STAT.                    :STATE
CNTY.                    :
DATE.                    :DATE
API.                     :
#------------------------------------------------------------
~CURVE INFORMATION
MD                       :DEPTH
SGRRAW.API               :SGRRaw
SGR.API                  :SGR
SGRRAW_COR.API           :SGRRAW_COR
SGR_COR.API              :SGR_COR
232TH.PPM                :232TH
238U.PPM                 :238U
40K.%                    :40K
GRRAW.API                :GRRaw
GR.API                   :GR
GRRAW_COR.API            :GRRAW_COR
GR_COR.API               :GR_COR
#------------------------------------------------------------
~PARAMETER INFORMATION
001_Bohrungsnummer. 314532  :001_Bohrungsnummer
002_Firma. Geologischer Dienst NRW_Fachbereich 34_Geophysik, Landeserdbebendienst_34.23 Bohrlochgeophysik_De-Greiff-Straße 195_47803 Krefeld  :002_Firma
003_GR.                  :003_GR
004_GR_FEL.         yes  :004_GR_FEL
005_GR_SAL_TEMP.         :005_GR_SAL_TEMP
006_SGR.            yes  :006_SGR
007_CAL3.                :007_CAL3
008_ORI.                 :008_ORI
009_SUSZ.                :009_SUSZ
010_OBI.            yes  :010_OBI
011_STpF.                :011_STpF
012_SAMP.                :012_SAMP
013_Log_Feld.            :013_Log_Feld
014_Log_End.        yes  :014_Log_End
015_Teufenskala.    200  :015_Teufenskala
016_Bohrung. IGL Hastenrath_Albertstraße 57_52249 Eschweiler  :016_Bohrung
017_TK25. 5203 Stolberg (Rheinland)  :017_TK25
018_Land.   Deutschland  :018_Land
019_Koordinaten#1. 32U 307542,00 +/- 5 m  :019_Koordinaten#1
020_Koordinaten#2. UTM 5629294,00 +/- 5 m  :020_Koordinaten#2
021_Koordinaten#3. (UTM 32.Zone ETRS89)  :021_Koordinaten#3
022_Hoehe.       233,00  :022_Hoehe
023_DGPS_Ja.             :023_DGPS_Ja
024_DGPS_Nein.      yes  :024_DGPS_Nein
025_Auftraggeber. Heß, O. (GD NRW)  :025_Auftraggeber
026_Bohrfirma. H. Anger's Söhne_Bohr- und Brunnenbaugesellschaft mbH_Gutenbergstr. 33_37235 Hessisch Lichtenau  :026_Bohrfirma
027_Bohrmeister.   k.A.  :027_Bohrmeister
028_Bohrungsart. Geologische Untersuchung  :028_Bohrungsart
029_Bohrungsverfahren. Kernbohrung  :029_Bohrungsverfahren
030_TeufenBez.      GOK  :030_TeufenBez
031_Messbez.      -1,73  :031_Messbez
032_Bohrbez.        GOK  :032_Bohrbez
033_Bearbeiter.          :033_Bearbeiter
034_Deklination.   1,77  :034_Deklination
100_Stand_ID.       156  :100_Stand_ID
101_Stand_OD.       178  :101_Stand_OD
102_Stand_RL.       1,5  :102_Stand_RL
103_Stand_MA.     Stahl  :103_Stand_MA
104_Stand_vb. -1,02 / 6,12  :104_Stand_vb
105_Stand_MNr.    1 - 3  :105_Stand_MNr
106_StandM_ID.      156  :106_StandM_ID
107_StandM_OD.      178  :107_StandM_OD
108_StandM_RL.     0,11  :108_StandM_RL
109_StandM_MA.    Stahl  :109_StandM_MA
110_StandM_vb. -1,02 / 6,12  :110_StandM_vb
111_StandM_MNr.   1 - 3  :111_StandM_MNr
112_Gest_ID.        126  :112_Gest_ID
113_Gest_OD.        140  :113_Gest_OD
114_Gest_RL.       3,00  :114_Gest_RL
115_Gest_MA.      Stahl  :115_Gest_MA
116_Gest_vb. -1,73 / 90,00  :116_Gest_vb
117_Gest_MNr.         1  :117_Gest_MNr
118_GestM_ID.       126  :118_GestM_ID
119_GestM_OD.       140  :119_GestM_OD
120_GestM_RL.     0,065  :120_GestM_RL
121_GestM_MA.     Stahl  :121_GestM_MA
122_GestM_vb. -1,73 / 90,00  :122_GestM_vb
123_GestM_MNr.        1  :123_GestM_MNr
124_Verr_ID.        ./.  :124_Verr_ID
125_Verr_OD.        ./.  :125_Verr_OD
126_Verr_RL.        ./.  :126_Verr_RL
127_Verr_MA.        ./.  :127_Verr_MA
128_Verr_vb.        ./.  :128_Verr_vb
129_Verr_MNr.       ./.  :129_Verr_MNr
130_oBL_ID.         146  :130_oBL_ID
134_oBL_vb. 6,12 / 90,00  :134_oBL_vb
135_oBL_MNr.      2 - 3  :135_oBL_MNr
136_MeißelA.        PCD  :136_MeißelA
137_MeißelD.        146  :137_MeißelD
138_Sp_Ja.          yes  :138_Sp_Ja
139_Sp_Nein.             :139_Sp_Nein
140_Sp_W.           yes  :140_Sp_W
141_Sp_B.                :141_Sp_B
142_Sp_A.           yes  :142_Sp_A
143_Sp_T.                :143_Sp_T
144_Sp_GW.               :144_Sp_GW
145_Sp_S.                :145_Sp_S
146_SpStop.        k.A.  :146_SpStop
147_SpProbe_Ja.          :147_SpProbe_Ja
148_SpProbe_Nein.   yes  :148_SpProbe_Nein
149_SpProbe_S.           :149_SpProbe_S
150_Dichte.         ./.  :150_Dichte
151_sonstiger_Zusatz. sonstiges  :151_sonstiger_Zusatz
152_sonstige_SPprobe. sonstiges  :152_sonstige_SPprobe
154_VerrM_ID.       ./.  :154_VerrM_ID
155_VerrM_OD.       ./.  :155_VerrM_OD
156_VerrM_RL.       ./.  :156_VerrM_RL
157_VerrM_MA.       ./.  :157_VerrM_MA
158_VerrM_vb.       ./.  :158_VerrM_vb
159_VerrM_MNr.      ./.  :159_VerrM_MNr
200_MessNr#1. 1 aufwärts  :200_MessNr#1
201_Datum#1. 27 Apr 2018  :201_Datum#1
202_Sonde#1.        SGR  :202_Sonde#1
203_RohrÜber#1.   -1,73  :203_RohrÜber#1
204_FlüssigSP#1.  51,04  :204_FlüssigSP#1
205_FlüssigZP#1.   9_45  :205_FlüssigZP#1
206_ErrTiefe#1.   90,00  :206_ErrTiefe#1
207_TiefsterMP#1. 88,93  :207_TiefsterMP#1
208_HöchsterMP#1.  0,34  :208_HöchsterMP#1
209_Messbeginn#1.  9_32  :209_Messbeginn#1
210_MessNr#2. 2 aufwärts  :210_MessNr#2
211_Datum#2. 27 Apr 2018  :211_Datum#2
212_Sonde#2.        OBI  :212_Sonde#2
213_RohrÜber#2.   -1,02  :213_RohrÜber#2
214_FlüssigSP#2.   k.A.  :214_FlüssigSP#2
215_FlüssigZP#2.   k.A.  :215_FlüssigZP#2
216_ErrTiefe#2.   12,50  :216_ErrTiefe#2
217_TiefsterMP#2. 12,43  :217_TiefsterMP#2
218_HöchsterMP#2.  5,44  :218_HöchsterMP#2
219_Messbeginn#2. 12_10  :219_Messbeginn#2
220_MessNr#3. 3 aufwärts  :220_MessNr#3
221_Datum#3. 27 Apr 2018  :221_Datum#3
222_Sonde#3.   GR / FEL  :222_Sonde#3
223_RohrÜber#3.   -1,02  :223_RohrÜber#3
224_FlüssigSP#3.   k.A.  :224_FlüssigSP#3
225_FlüssigZP#3.   k.A.  :225_FlüssigZP#3
226_ErrTiefe#3.   39,06  :226_ErrTiefe#3
227_TiefsterMP#3. 37,99  :227_TiefsterMP#3
228_HöchsterMP#3.  2,80  :228_HöchsterMP#3
229_Messbeginn#3. 12_28  :229_Messbeginn#3
230_MessNr#4.            :230_MessNr#4
231_Datum#4.             :231_Datum#4
232_Sonde#4.             :232_Sonde#4
233_RohrÜber#4.          :233_RohrÜber#4
234_FlüssigSP#4.         :234_FlüssigSP#4
235_FlüssigZP#4.         :235_FlüssigZP#4
236_ErrTiefe#4.          :236_ErrTiefe#4
237_TiefsterMP#4.        :237_TiefsterMP#4
238_HöchsterMP#4.        :238_HöchsterMP#4
239_Messbeginn#4.        :239_Messbeginn#4
240_MessNr#5.            :240_MessNr#5
241_Datum#5.             :241_Datum#5
242_Sonde#5.             :242_Sonde#5
243_RohrÜber#5.          :243_RohrÜber#5
244_FlüssigSP#5.         :244_FlüssigSP#5
245_FlüssigZP#5.         :245_FlüssigZP#5
246_ErrTiefe#5.          :246_ErrTiefe#5
247_TiefsterMP#5.        :247_TiefsterMP#5
248_HöchsterMP#5.        :248_HöchsterMP#5
249_Messbeginn#5.        :249_Messbeginn#5
250_TeufeBM.      90,00  :250_TeufeBM
251_Messwagen. KR-GD 600  :251_Messwagen
252_Messtrupp. Orth / Helbing  :252_Messtrupp
253_Bemerkungen. OBI-Sonde ist bei 12,50 m aufgesetzt._GRFEL-Sonde ist überhalb der Wassersäule bei 39,06 m aufgesetzt, daher keine Wiederstandswerte._Die Stückelung der Schutzverrohrung ist unklar (Überstand 1,02 m gemessen, Ende Schneidschuh 6,12 m ergibt sich durch_OBI)  :253_Bemerkungen
254_Korrekturen. GR_COR / SGR_COR_ Von Bohrlocheinflüssen korrigiertes GR-Log nach (Lehmann, 2010)  :254_Korrekturen
259_Anmerkung. Interpretationen und Beurteilungen der von uns durchgeführten Messungen werden von unserem Personal nach bestem Wissen und Gewissen durchgeführt,_ohne jedoch für die Genauigkeit bzw. Richtigkeit zu garantieren. Ebenso lehnen wir jegliche Haftung oder Verantwortung für irgendwelche Verluste, Kosten oder Schäden ab, die unserem Auftraggeber dadurch entstehen können.  :259_Anmerkung
300_Run#1.            1  :300_Run#1
301_Trip#1.         ./.  :301_Trip#1
302_Gerätedaten#1.  SGR                 LogIn 2901               k.A.                      191 mm  :302_Gerätedaten#1
303_Run#2.            2  :303_Run#2
304_Trip#2.         ./.  :304_Trip#2
305_Gerätedaten#2.  OBI                 ALT QL40-OBI-2G 151105   k.A.                      86.6 mm  :305_Gerätedaten#2
306_Run#3.            3  :306_Run#3
307_Trip#3.         ./.  :307_Trip#3
308_Gerätedaten#3.  GR / FEL            LogIn GaFEL 1125004      05.11.2015 / 22.10.2015   157 / 797 mm  :308_Gerätedaten#3
309_Run#4.               :309_Run#4
310_Trip#4.              :310_Trip#4
311_Gerätedaten#4.       :311_Gerätedaten#4
312_Run#5.               :312_Run#5
313_Trip#5.              :313_Trip#5
314_Gerätedaten#5.       :314_Gerätedaten#5
315_Run#6.               :315_Run#6
316_Trip#6.              :316_Trip#6
317_Gerätedaten#6.       :317_Gerätedaten#6
318_Run#7.               :318_Run#7
319_Trip#7.              :319_Trip#7
320_Gerätedaten#7.       :320_Gerätedaten#7
321_Run#8.               :321_Run#8
322_Trip#8.              :322_Trip#8
323_Gerätedaten#8.       :323_Gerätedaten#8
324_Run#9.               :324_Run#9
325_Trip#9.              :325_Trip#9
326_Gerätedaten#9.       :326_Gerätedaten#9
327_Run#10.              :327_Run#10
328_Trip#10.             :328_Trip#10
329_Gerätedaten#10.      :329_Gerätedaten#10
330_Gerätedaten#0.  GERÄT               SONDEN NR.               LETZTE KALIBRIERUNG       ABSTAND TIEFSTER MESSPUNKT  :330_Gerätedaten#0
#------------------------------------------------------------
~OTHER
#------------------------------------------------------------
~A   MD      SGRRAW         SGR  SGRRAW_COR     SGR_COR       232TH        238U         40K       GRRAW          GR   GRRAW_COR      GR_COR
    0.343000     18.0403     16.7586     30.4280     28.2661     1.68240    0.120665    0.140486    -999.250    -999.250    -999.250    -999.250
    0.394000     16.8469     16.1176     28.4151     27.1850     1.56995    0.149466    0.144757    -999.250    -999.250    -999.250    -999.250
    0.445000     16.1627     15.4009     27.2608     25.9760     1.46829    0.189842    0.146184    -999.250    -999.250    -999.250    -999.250
    0.496000     12.5322     14.7974     21.1367     24.9582     1.40126    0.237724    0.143370    -999.250    -999.250    -999.250    -999.250
    0.547000     11.6311     14.4867     19.6178     24.4343     1.38538    0.306336    0.136263    -999.250    -999.250    -999.250    -999.250
    0.598000     14.7207     14.7581     24.8296     24.8921     1.43222    0.405038    0.128316    -999.250    -999.250    -999.250    -999.250
    0.649000     13.2713     15.4679     22.3839     26.0894     1.57163    0.528087    0.127761    -999.250    -999.250    -999.250    -999.250
    0.700000     12.9293     16.9130     21.8073     28.5270     1.78990    0.626263    0.139673    -999.250    -999.250    -999.250    -999.250
    0.751000     18.3609     19.2114     30.9700     32.4037     2.14344    0.660234    0.172718    -999.250    -999.250    -999.250    -999.250
    0.802000     17.5656     22.4579     29.6271     37.8799     2.62848    0.599481    0.227346    -999.250    -999.250    -999.250    -999.250
    0.853000     26.1741     26.6778     44.1491     44.9977     3.25096    0.467252    0.303062    -999.250    -999.250    -999.250    -999.250
    0.904000     27.1856     31.6408     45.8534     53.3686     3.91577    0.313110    0.391289    -999.250    -999.250    -999.250    -999.250
    0.955000     34.9764     37.4352     58.9955     63.1421     4.53532    0.217293    0.485962    -999.250    -999.250    -999.250    -999.250
     1.00600     39.7179     43.5540     66.9922     73.4627     4.97700    0.251583    0.576547    -999.250    -999.250    -999.250    -999.250
     1.05700     54.7059     49.7728     92.2741     83.9516     5.29240    0.432407    0.669026    -999.250    -999.250    -999.250    -999.250
     1.10800     57.6429     55.5818     97.2251     93.7495     5.36256    0.755316    0.743883    -999.250    -999.250    -999.250    -999.250
     1.15900     67.4419     60.7160     113.754     102.409     5.30634     1.16288    0.806172    -999.250    -999.250    -999.250    -999.250
     1.21000     69.6097     64.9680     117.409     109.580     5.19586     1.51086    0.843299    -999.250    -999.250    -999.250    -999.250
     1.26100     68.3641     68.1985     115.307     115.029     5.30189     1.72196    0.877575    -999.250    -999.250    -999.250    -999.250
     1.31200     70.0699     70.5879     118.185     119.059     5.55184     1.75406    0.895803    -999.250    -999.250    -999.250    -999.250
     1.36300     76.3318     72.3951     128.748     122.107     5.89672     1.68244    0.901873    -999.250    -999.250    -999.250    -999.250
     1.41400     73.4268     73.5405     123.846     124.038     6.23481     1.59510    0.910464    -999.250    -999.250    -999.250    -999.250
     1.46500     76.9233     74.1529     129.745     125.071     6.37405     1.54597    0.926302    -999.250    -999.250    -999.250    -999.250
     1.51600     75.2841     74.3315     126.979     125.372     6.31370     1.57907    0.967899    -999.250    -999.250    -999.250    -999.250
     1.56700     71.4684     74.4786     120.540     125.620     5.96990     1.63292     1.01333    -999.250    -999.250    -999.250    -999.250
     1.61800     79.4508     74.4202     134.009     125.522     5.61850     1.66739     1.06950    -999.250    -999.250    -999.250    -999.250
     1.66900     74.1444     73.9910     125.056     124.798     5.40931     1.60287     1.11614    -999.250    -999.250    -999.250    -999.250
     1.72000     70.0193     73.6093     118.098     124.154     5.64928     1.46211     1.18118    -999.250    -999.250    -999.250    -999.250
     1.77100     70.7843     73.4768     119.390     123.930     6.03405     1.20132     1.20073    -999.250    -999.250    -999.250    -999.250
     1.82200     79.8297     73.5236     134.648     124.009     6.61554    0.932610     1.20784    -999.250    -999.250    -999.250    -999.250
     1.87300     67.1725     73.2187     113.291     123.495     7.12686    0.698387     1.18663    -999.250    -999.250    -999.250    -999.250
     1.92400     75.4868     73.5922     127.323     124.126     7.56420    0.534508     1.16463    -999.250    -999.250    -999.250    -999.250
     1.97500     73.6634     74.0396     124.245     124.880     7.87768    0.424999     1.14496    -999.250    -999.250    -999.250    -999.250
     2.02600     75.5838     74.2589     127.487     125.250     7.99108    0.345546     1.11572    -999.250    -999.250    -999.250    -999.250
     2.07700     71.1001     74.1167     119.921     125.011     8.05817    0.301041     1.09239    -999.250    -999.250    -999.250    -999.250
     2.12800     71.7136     73.3095     120.957     123.650     7.99423    0.311507     1.05861    -999.250    -999.250    -999.250    -999.250
     2.17900     87.3017     72.3657     147.257     122.058     7.80531    0.411938     1.01532    -999.250    -999.250    -999.250    -999.250
     2.23000     74.1799     69.8931     125.114     117.887     7.24284    0.603693    0.933351    -999.250    -999.250    -999.250    -999.250
     2.28100     64.9732     67.0702     109.586     113.126     6.54720    0.875583    0.847870    -999.250    -999.250    -999.250    -999.250
     2.33200     68.1333     64.4136     114.925     108.645     5.79494     1.18166    0.771897    -999.250    -999.250    -999.250    -999.250
     2.38300     47.4800     61.7598     80.0776     104.168     5.14632     1.48282    0.725449    -999.250    -999.250    -999.250    -999.250
     2.43400     58.6750     60.1341     98.9674     101.426     4.64694     1.72455    0.704759    -999.250    -999.250    -999.250    -999.250
     2.48500     52.3918     58.7333     88.3636     99.0633     4.37677     1.86636    0.703261    -999.250    -999.250    -999.250    -999.250
     2.53600     60.2720     58.0971     101.661     97.9902     4.36552     1.86995    0.709206    -999.250     44.9213    -999.250     61.2091
     2.58700     62.2616     57.5221     105.014     97.0204     4.55347     1.72536    0.710176    -999.250     45.2022    -999.250     61.5919
     2.63800     60.7781     56.5235     102.512     95.3357     4.77601     1.47849    0.696795    -999.250     43.9747    -999.250     59.9193
     2.68900     60.8863     55.4099     102.695     93.4576     4.81417     1.21713    0.664554    -999.250     43.9466    -999.250     59.8810
     2.74000     53.7199     53.4122     90.6076     90.0884     4.65654     1.05258    0.632667    -999.250     44.8648    -999.250     61.1321
     2.79100     45.0062     51.0970     75.9072     86.1830     4.37443     1.02106    0.613647     44.9213     45.2498     61.2091     61.6567
     2.84200     48.5746     48.9004     81.9302     82.4781     3.99274     1.07099    0.598674     45.7640     45.8720     62.3574     62.5045
     2.89300     44.2957     46.8770     74.7120     79.0660     3.71987     1.12955    0.592357     37.4441     46.2790     51.0208     63.0591
     2.94400     49.2825     45.4395     83.1262     76.6411     3.54673     1.13290    0.575440     48.1257     47.0793     65.5754     64.1495
     2.99500     42.4727     44.3056     71.6350     74.7285     3.58513     1.13276    0.556525     57.2886     47.9577     78.0606     65.3465
     3.04600     37.3293     43.5675     62.9621     73.4841     3.72056     1.15197    0.515548     43.1228     48.2422     58.7584     65.7341
     3.09700     41.8860     43.4656     70.6486     73.3121     3.88760     1.24862    0.452941     55.4345     48.6412     75.5343     66.2777
     3.14800     43.1269     43.3742     72.7411     73.1578     3.98242     1.43801    0.374010     44.6972     48.5975     60.9038     66.2182
