#------------------------------------------------------------
~VERSION INFORMATION
VERS.               2.0  :CWLS LOG ASCII STANDARD - VERSION 2.0
WRAP.                NO  :ONE LINE PER DEPTH STEP
#------------------------------------------------------------
~WELL INFORMATION
STRT.M         0.343000  :FIRST INDEX VALUE
STOP.M          88.9300  :LAST INDEX VALUE
STEP.M        0.0510000  :STEP
NULL.           -999.25  :NULL VALUE
COMP.                    :COMPANY
WELL.                    :WELL
FLD.                     :FIELD
LOC.                     :LOCATION
SRVC.                    :
CTRY. Germany            :COUNTRY
STAT.                    :STATE
CNTY.                    :
DATE.                    :DATE
API.                     :
#------------------------------------------------------------
~CURVE INFORMATION
MD                       :DEPTH
SGRRAW.API               :SGRRaw
SGR.API                  :SGR
SGRRAW_COR.API           :SGRRAW_COR
SGR_COR.API              :SGR_COR
232TH.PPM                :232TH
238U.PPM                 :238U
40K.%                    :40K
GRRAW.API                :GRRaw
GR.API                   :GR
GRRAW_COR.API            :GRRAW_COR
GR_COR.API               :GR_COR
#------------------------------------------------------------
~PARAMETER INFORMATION
001_Bohrungsnummer. 314532  :001_Bohrungsnummer
002_Firma. Geologischer Dienst NRW_Fachbereich 34_Geophysik, Landeserdbebendienst_34.23 Bohrlochgeophysik_De-Greiff-Straße 195_47803 Krefeld  :002_Firma
003_GR.                  :003_GR
004_GR_FEL.         yes  :004_GR_FEL
005_GR_SAL_TEMP.         :005_GR_SAL_TEMP
006_SGR.            yes  :006_SGR
007_CAL3.                :007_CAL3
008_ORI.                 :008_ORI
009_SUSZ.                :009_SUSZ
010_OBI.            yes  :010_OBI
011_STpF.                :011_STpF
012_SAMP.                :012_SAMP
013_Log_Feld.            :013_Log_Feld
014_Log_End.        yes  :014_Log_End
015_Teufenskala.    200  :015_Teufenskala
016_Bohrung. IGL Hastenrath_Albertstraße 57_52249 Eschweiler  :016_Bohrung
017_TK25. 5203 Stolberg (Rheinland)  :017_TK25
018_Land.   Deutschland  :018_Land
019_Koordinaten#1. 32U 307542,00 +/- 5 m  :019_Koordinaten#1
020_Koordinaten#2. UTM 5629294,00 +/- 5 m  :020_Koordinaten#2
021_Koordinaten#3. (UTM 32.Zone ETRS89)  :021_Koordinaten#3
022_Hoehe.       233,00  :022_Hoehe
023_DGPS_Ja.             :023_DGPS_Ja
024_DGPS_Nein.      yes  :024_DGPS_Nein
025_Auftraggeber. Heß, O. (GD NRW)  :025_Auftraggeber
026_Bohrfirma. H. Anger's Söhne_Bohr- und Brunnenbaugesellschaft mbH_Gutenbergstr. 33_37235 Hessisch Lichtenau  :026_Bohrfirma
027_Bohrmeister.   k.A.  :027_Bohrmeister
028_Bohrungsart. Geologische Untersuchung  :028_Bohrungsart
029_Bohrungsverfahren. Kernbohrung  :029_Bohrungsverfahren
030_TeufenBez.      GOK  :030_TeufenBez
031_Messbez.      -1,73  :031_Messbez
032_Bohrbez.        GOK  :032_Bohrbez
033_Bearbeiter.          :033_Bearbeiter
034_Deklination.   1,77  :034_Deklination
100_Stand_ID.       156  :100_Stand_ID
101_Stand_OD.       178  :101_Stand_OD
102_Stand_RL.       1,5  :102_Stand_RL
103_Stand_MA.     Stahl  :103_Stand_MA
104_Stand_vb. -1,02 / 6,12  :104_Stand_vb
105_Stand_MNr.    1 - 3  :105_Stand_MNr
106_StandM_ID.      156  :106_StandM_ID
107_StandM_OD.      178  :107_StandM_OD
108_StandM_RL.     0,11  :108_StandM_RL
109_StandM_MA.    Stahl  :109_StandM_MA
110_StandM_vb. -1,02 / 6,12  :110_StandM_vb
111_StandM_MNr.   1 - 3  :111_StandM_MNr
112_Gest_ID.        126  :112_Gest_ID
113_Gest_OD.        140  :113_Gest_OD
114_Gest_RL.       3,00  :114_Gest_RL
115_Gest_MA.      Stahl  :115_Gest_MA
116_Gest_vb. -1,73 / 90,00  :116_Gest_vb
117_Gest_MNr.         1  :117_Gest_MNr
118_GestM_ID.       126  :118_GestM_ID
119_GestM_OD.       140  :119_GestM_OD
120_GestM_RL.     0,065  :120_GestM_RL
121_GestM_MA.     Stahl  :121_GestM_MA
122_GestM_vb. -1,73 / 90,00  :122_GestM_vb
123_GestM_MNr.        1  :123_GestM_MNr
124_Verr_ID.        ./.  :124_Verr_ID
125_Verr_OD.        ./.  :125_Verr_OD
126_Verr_RL.        ./.  :126_Verr_RL
127_Verr_MA.        ./.  :127_Verr_MA
128_Verr_vb.        ./.  :128_Verr_vb
129_Verr_MNr.       ./.  :129_Verr_MNr
130_oBL_ID.         146  :130_oBL_ID
134_oBL_vb. 6,12 / 90,00  :134_oBL_vb
135_oBL_MNr.      2 - 3  :135_oBL_MNr
136_MeißelA.        PCD  :136_MeißelA
137_MeißelD.        146  :137_MeißelD
138_Sp_Ja.          yes  :138_Sp_Ja
139_Sp_Nein.             :139_Sp_Nein
140_Sp_W.           yes  :140_Sp_W
141_Sp_B.                :141_Sp_B
142_Sp_A.           yes  :142_Sp_A
143_Sp_T.                :143_Sp_T
144_Sp_GW.               :144_Sp_GW
145_Sp_S.                :145_Sp_S
146_SpStop.        k.A.  :146_SpStop
147_SpProbe_Ja.          :147_SpProbe_Ja
148_SpProbe_Nein.   yes  :148_SpProbe_Nein
149_SpProbe_S.           :149_SpProbe_S
150_Dichte.         ./.  :150_Dichte
151_sonstiger_Zusatz. sonstiges  :151_sonstiger_Zusatz
152_sonstige_SPprobe. sonstiges  :152_sonstige_SPprobe
154_VerrM_ID.       ./.  :154_VerrM_ID
155_VerrM_OD.       ./.  :155_VerrM_OD
156_VerrM_RL.       ./.  :156_VerrM_RL
157_VerrM_MA.       ./.  :157_VerrM_MA
158_VerrM_vb.       ./.  :158_VerrM_vb
159_VerrM_MNr.      ./.  :159_VerrM_MNr
200_MessNr#1. 1 aufwärts  :200_MessNr#1
201_Datum#1. 27 Apr 2018  :201_Datum#1
202_Sonde#1.        SGR  :202_Sonde#1
203_RohrÜber#1.   -1,73  :203_RohrÜber#1
204_FlüssigSP#1.  51,04  :204_FlüssigSP#1
205_FlüssigZP#1.   9_45  :205_FlüssigZP#1
206_ErrTiefe#1.   90,00  :206_ErrTiefe#1
207_TiefsterMP#1. 88,93  :207_TiefsterMP#1
208_HöchsterMP#1.  0,34  :208_HöchsterMP#1
209_Messbeginn#1.  9_32  :209_Messbeginn#1
210_MessNr#2. 2 aufwärts  :210_MessNr#2
211_Datum#2. 27 Apr 2018  :211_Datum#2
212_Sonde#2.        OBI  :212_Sonde#2
213_RohrÜber#2.   -1,02  :213_RohrÜber#2
214_FlüssigSP#2.   k.A.  :214_FlüssigSP#2
215_FlüssigZP#2.   k.A.  :215_FlüssigZP#2
216_ErrTiefe#2.   12,50  :216_ErrTiefe#2
217_TiefsterMP#2. 12,43  :217_TiefsterMP#2
218_HöchsterMP#2.  5,44  :218_HöchsterMP#2
219_Messbeginn#2. 12_10  :219_Messbeginn#2
220_MessNr#3. 3 aufwärts  :220_MessNr#3
221_Datum#3. 27 Apr 2018  :221_Datum#3
222_Sonde#3.   GR / FEL  :222_Sonde#3
223_RohrÜber#3.   -1,02  :223_RohrÜber#3
224_FlüssigSP#3.   k.A.  :224_FlüssigSP#3
225_FlüssigZP#3.   k.A.  :225_FlüssigZP#3
226_ErrTiefe#3.   39,06  :226_ErrTiefe#3
227_TiefsterMP#3. 37,99  :227_TiefsterMP#3
228_HöchsterMP#3.  2,80  :228_HöchsterMP#3
229_Messbeginn#3. 12_28  :229_Messbeginn#3
230_MessNr#4.            :230_MessNr#4
231_Datum#4.             :231_Datum#4
232_Sonde#4.             :232_Sonde#4
233_RohrÜber#4.          :233_RohrÜber#4
234_FlüssigSP#4.         :234_FlüssigSP#4
235_FlüssigZP#4.         :235_FlüssigZP#4
236_ErrTiefe#4.          :236_ErrTiefe#4
237_TiefsterMP#4.        :237_TiefsterMP#4
238_HöchsterMP#4.        :238_HöchsterMP#4
239_Messbeginn#4.        :239_Messbeginn#4
240_MessNr#5.            :240_MessNr#5
241_Datum#5.             :241_Datum#5
242_Sonde#5.             :242_Sonde#5
243_RohrÜber#5.          :243_RohrÜber#5
244_FlüssigSP#5.         :244_FlüssigSP#5
245_FlüssigZP#5.         :245_FlüssigZP#5
246_ErrTiefe#5.          :246_ErrTiefe#5
247_TiefsterMP#5.        :247_TiefsterMP#5
248_HöchsterMP#5.        :248_HöchsterMP#5
249_Messbeginn#5.        :249_Messbeginn#5
250_TeufeBM.      90,00  :250_TeufeBM
251_Messwagen. KR-GD 600  :251_Messwagen
252_Messtrupp. Orth / Helbing  :252_Messtrupp
253_Bemerkungen. OBI-Sonde ist bei 12,50 m aufgesetzt._GRFEL-Sonde ist überhalb der Wassersäule bei 39,06 m aufgesetzt, daher keine Wiederstandswerte._Die Stückelung der Schutzverrohrung ist unklar (Überstand 1,02 m gemessen, Ende Schneidschuh 6,12 m ergibt sich durch_OBI)  :253_Bemerkungen
254_Korrekturen. GR_COR / SGR_COR_ Von Bohrlocheinflüssen korrigiertes GR-Log nach (Lehmann, 2010)  :254_Korrekturen
259_Anmerkung. Interpretationen und Beurteilungen der von uns durchgeführten Messungen werden von unserem Personal nach bestem Wissen und Gewissen durchgeführt,_ohne jedoch für die Genauigkeit bzw. Richtigkeit zu garantieren. Ebenso lehnen wir jegliche Haftung oder Verantwortung für irgendwelche Verluste, Kosten oder Schäden ab, die unserem Auftraggeber dadurch entstehen können.  :259_Anmerkung
300_Run#1.            1  :300_Run#1
301_Trip#1.         ./.  :301_Trip#1
302_Gerätedaten#1.  SGR                 LogIn 2901               k.A.                      191 mm  :302_Gerätedaten#1
303_Run#2.            2  :303_Run#2
304_Trip#2.         ./.  :304_Trip#2
305_Gerätedaten#2.  OBI                 ALT QL40-OBI-2G 151105   k.A.                      86.6 mm  :305_Gerätedaten#2
306_Run#3.            3  :306_Run#3
307_Trip#3.         ./.  :307_Trip#3
308_Gerätedaten#3.  GR / FEL            LogIn GaFEL 1125004      05.11.2015 / 22.10.2015   157 / 797 mm  :308_Gerätedaten#3
309_Run#4.               :309_Run#4
310_Trip#4.              :310_Trip#4
311_Gerätedaten#4.       :311_Gerätedaten#4
312_Run#5.               :312_Run#5
313_Trip#5.              :313_Trip#5
314_Gerätedaten#5.       :314_Gerätedaten#5
315_Run#6.               :315_Run#6
316_Trip#6.              :316_Trip#6
317_Gerätedaten#6.       :317_Gerätedaten#6
318_Run#7.               :318_Run#7
319_Trip#7.              :319_Trip#7
320_Gerätedaten#7.       :320_Gerätedaten#7
321_Run#8.               :321_Run#8
322_Trip#8.              :322_Trip#8
323_Gerätedaten#8.       :323_Gerätedaten#8
324_Run#9.               :324_Run#9
325_Trip#9.              :325_Trip#9
326_Gerätedaten#9.       :326_Gerätedaten#9
327_Run#10.              :327_Run#10
328_Trip#10.             :328_Trip#10
329_Gerätedaten#10.      :329_Gerätedaten#10
330_Gerätedaten#0.  GERÄT               SONDEN NR.               LETZTE KALIBRIERUNG       ABSTAND TIEFSTER MESSPUNKT  :330_Gerätedaten#0
#------------------------------------------------------------
~OTHER
#------------------------------------------------------------
~A   MD      SGRRAW         SGR  SGRRAW_COR     SGR_COR       232TH        238U         40K       GRRAW          GR   GRRAW_COR      GR_COR
# ...
     6.05500     18.8720     16.9847     31.8343     25.7722    0.711135     1.19397    0.139643     17.2600     18.1284     23.5181     22.1212
     6.10600     13.5638     16.9396     22.8758     24.3198    0.562468     1.34834    0.134342     18.1597     18.6750     24.7441     21.5843
     6.15700     16.6996     17.3960     19.1525     23.4008    0.491704     1.43645    0.129822     26.5926     19.3060     25.5704     20.9812
     6.20800     22.9464     17.8534     26.3182     22.7363    0.488575     1.44675    0.128187     20.9709     19.5215     19.4299     20.1811
     6.25900     21.2421     17.8590     24.3617     21.8224    0.499175     1.42289    0.128771     17.5414     19.4934     16.2524     19.3767
     6.31000     13.6546     17.5070     15.6602     20.7682    0.463468     1.41212    0.128692     17.2039     19.3700     15.9397     18.6733
     6.36100     17.2456     17.1762     19.7792     19.9024    0.355981     1.43212    0.124340     25.6371     19.1904     23.7531     18.0519
     6.41200     20.8374     16.7321     23.8988     19.1896    0.215391     1.48469    0.114601     14.9558     18.5595     13.8568     17.2216
     6.46300     16.5558     15.8853     18.9875     18.2185    0.120892     1.54771   0.0997323     18.4406     18.0098     17.0854     16.6863
     6.51400     11.6774     14.9536     13.3918     17.1498    0.147991     1.54824   0.0793657     14.8989     17.6896     13.8041     16.3897
     6.56500     11.6260     14.5021     13.3336     16.6320    0.327417     1.47219   0.0590822     16.0231     17.8192     14.8457     16.5098
     6.61600     17.1247     14.4517     19.6399     16.5743    0.458127     1.42819   0.0447076     21.3079     18.2862     19.7421     16.9424
     6.66700     11.5410     14.4325     13.2352     16.5523    0.544768     1.40461   0.0423010     17.7662     18.8609     16.4607     17.4749
     6.71800     13.6245     14.7278     15.6262     16.8911    0.574503     1.41385   0.0514352     14.6741     19.8432     13.5958     18.3850
     6.76900     13.3455     15.4901     15.3057     17.7653    0.550822     1.44687   0.0702279     18.5531     21.0426     17.1897     19.4962
     6.82000     17.6963     16.4966     20.2962     18.9198    0.505138     1.45706   0.0944004     25.0187     22.2404     23.1799     20.6060
     6.87100     16.4549     17.3788     18.8715     19.9316    0.487228     1.44999    0.120649     26.6491     23.2009     24.6908     21.4959
     6.92200     21.7132     18.2140     24.9025     20.8893    0.504331     1.43538    0.142805     29.2915     23.7319     27.1390     21.9879
     6.97300     17.1609     18.9875     19.6807     21.7764    0.629221     1.36183    0.151850     24.5690     23.6944     22.7637     21.9532
     7.02400     23.2193     19.5887     26.6311     22.4660    0.717247     1.39663    0.141132     22.2078     23.6585     20.5759     21.9199
     7.07500     18.9321     19.9271     21.7128     22.8539    0.807234     1.49268    0.114291     18.6096     23.4680     17.2420     21.7434
     7.12600     19.2363     20.2553     22.0618     23.2304    0.933510     1.61546   0.0834994     26.5926     23.5367     24.6385     21.8071
     7.17700     19.5858     20.7536     22.4627     23.8019     1.07300     1.68322   0.0593900     21.8144     23.8771     20.2114     22.1225
     7.22800     24.0877     21.3479     27.6256     24.4834     1.19912     1.74655   0.0508127     16.8105     24.6939     15.5751     22.8792
     7.27900     16.5785     21.9528     19.0135     25.1772     1.22925     1.82955   0.0557978     31.4274     26.4367     29.1180     24.4940
     7.33000     23.3458     23.1061     26.7762     26.5001     1.18480     1.96370   0.0706216     24.1759     28.4357     22.3993     26.3461
     7.38100     24.1587     24.3953     27.7071     27.9785     1.15938     2.08435   0.0919325     27.9984     30.8283     25.9409     28.5629
     7.43200     26.9002     25.6578     30.8513     29.4264     1.22557     2.11516    0.115788     37.9494     33.1771     35.1607     30.7391
     7.48300     26.1685     26.7720     30.0120     30.7044     1.41914     2.05968    0.138450     34.1270     35.0215     31.6191     32.4479
     7.53400     26.8455     27.8498     30.7886     31.9404     1.69762     1.91623    0.152973     37.6686     36.5661     34.9005     33.8790
     7.58500     35.7477     28.7435     40.9983     32.9654     1.99982     1.77646    0.158246     47.5072     37.2829     44.0161     34.5432
     7.63600     28.3535     28.9569     32.5164     33.2102     2.20408     1.67350    0.152806     40.3115     37.4719     37.3492     34.7183
     7.68700     28.4289     29.0721     32.6046     33.3421     2.30965     1.66015    0.143598     35.8134     37.3470     33.1818     34.6025
     7.73800     29.2337     29.2194     33.5275     33.5111     2.32215     1.70598    0.134380     31.1471     37.3751     28.8582     34.6286
     7.78900     31.4274     29.5427     36.0438     33.8820     2.30572     1.80959    0.131646     35.6445     38.0372     33.0251     35.2420
     7.84000     22.9821     29.8511     26.3577     34.2356     2.24844     1.94873    0.139148     28.7296     39.4365     26.6187     36.5384
     7.89100     30.4269     31.0641     34.8959     35.6267     2.18165     2.08876    0.160783     44.5834     41.7900     41.3071     38.7190
     7.94200     29.8165     32.9073     34.1958     37.7411     2.20776     2.18093    0.197288     45.1462     44.4230     41.8286     41.1586
     7.99300     33.8593     35.2242     38.8336     40.3985     2.38209     2.22029    0.243666     49.1377     47.2887     45.5268     43.8137
     8.04400     37.9051     37.6906     43.4726     43.2265     2.63141     2.21199    0.288454     47.1703     50.0421     43.7039     46.3647
     8.09500     36.1448     40.3171     41.4533     46.2393     2.87824     2.19437    0.327436     63.6989     52.4487     59.0179     48.5945
     8.14600     51.6819     42.7971     59.2769     49.0837     3.04647     2.17862    0.361895     54.1423     53.2187     50.1636     49.3079
     8.19700     47.8080     44.0224     54.8301     50.4883     3.05936     2.15267    0.391249     51.7242     52.6284     47.9232     48.7610
     8.24800     48.3288     44.4224     55.4274     50.9472     2.60814     2.24661    0.395311     58.3581     51.2994     54.0697     47.5296
     8.29900     44.6447     43.8593     51.2012     50.3012     2.34035     2.15811    0.400534     58.4146     48.8616     54.1219     45.2710
     8.35000     52.3796     42.3533     60.0730     48.5741     2.00763     2.11904    0.389752     50.7124     45.3727     46.9858     42.0385
     8.40100     35.5764     39.5737     40.7986     45.3857     1.66799     2.11208    0.359073     32.8341     40.8719     30.4213     37.8684
     8.45200     35.1930     36.3434     40.3621     41.6807     1.40495     2.11030    0.313816     30.5847     37.0020     28.3372     34.2829
     8.50300     35.5054     33.2030     40.7204     38.0798     1.27238     2.05435    0.259990     32.2713     33.6301     29.8999     31.1588
     8.55400     32.1596     29.9391     36.8825     34.3359     1.26349     1.87060    0.202705     31.6530     30.4286     29.3269     28.1926
     8.60500     21.4949     26.6325     24.6493     30.5434     1.38356     1.62006    0.158444     29.8539     27.4770     27.6600     25.4579
     8.65600     20.9833     23.7629     24.0653     27.2532     1.55263     1.29292    0.128989     17.8225     25.0016     16.5132     23.1644
     8.70700     18.7886     21.5078     21.5483     24.6669     1.74490    0.942160    0.116224     24.6811     23.5695     22.8674     21.8375
     8.75800     21.9681     19.6184     25.1956     22.4994     1.81089    0.698478    0.115808     24.9626     22.2218     23.1282     20.5888
     8.80900     18.7126     17.9103     21.4611     20.5409     1.85173    0.493023    0.116412     18.9469     20.7974     17.5548     19.2692
     8.86000     14.4637     16.4939     16.5881     18.9165     1.85825    0.368364    0.114569     13.9432     19.4809     12.9185     18.0494
