#------------------------------------------------------------
~VERSION INFORMATION
VERS.               2.0  :CWLS LOG ASCII STANDARD - VERSION 2.0
WRAP.                NO  :ONE LINE PER DEPTH STEP
#------------------------------------------------------------
~WELL INFORMATION
STRT.M         0.343000  :FIRST INDEX VALUE
STOP.M          88.9300  :LAST INDEX VALUE
STEP.M        0.0510000  :STEP
NULL.           -999.25  :NULL VALUE
COMP.                    :COMPANY
WELL.                    :WELL
FLD.                     :FIELD
LOC.                     :LOCATION
SRVC.                    :
CTRY. Germany            :COUNTRY
STAT.                    :STATE
CNTY.                    :
DATE.                    :DATE
API.                     :
#------------------------------------------------------------
~CURVE INFORMATION
MD                       :DEPTH
SGRRAW.API               :SGRRaw
SGR.API                  :SGR
SGRRAW_COR.API           :SGRRAW_COR
SGR_COR.API              :SGR_COR
232TH.PPM                :232TH
238U.PPM                 :238U
40K.%                    :40K
GRRAW.API                :GRRaw
GR.API                   :GR
GRRAW_COR.API            :GRRAW_COR
GR_COR.API               :GR_COR
#------------------------------------------------------------
~PARAMETER INFORMATION
001_Bohrungsnummer. 314532  :001_Bohrungsnummer
002_Firma. Geologischer Dienst NRW_Fachbereich 34_Geophysik, Landeserdbebendienst_34.23 Bohrlochgeophysik_De-Greiff-Straße 195_47803 Krefeld  :002_Firma
003_GR.                  :003_GR
004_GR_FEL.         yes  :004_GR_FEL
005_GR_SAL_TEMP.         :005_GR_SAL_TEMP
006_SGR.            yes  :006_SGR
007_CAL3.                :007_CAL3
008_ORI.                 :008_ORI
009_SUSZ.                :009_SUSZ
010_OBI.            yes  :010_OBI
011_STpF.                :011_STpF
012_SAMP.                :012_SAMP
013_Log_Feld.            :013_Log_Feld
014_Log_End.        yes  :014_Log_End
015_Teufenskala.    200  :015_Teufenskala
016_Bohrung. IGL Hastenrath_Albertstraße 57_52249 Eschweiler  :016_Bohrung
017_TK25. 5203 Stolberg (Rheinland)  :017_TK25
018_Land.   Deutschland  :018_Land
019_Koordinaten#1. 32U 307542,00 +/- 5 m  :019_Koordinaten#1
020_Koordinaten#2. UTM 5629294,00 +/- 5 m  :020_Koordinaten#2
021_Koordinaten#3. (UTM 32.Zone ETRS89)  :021_Koordinaten#3
022_Hoehe.       233,00  :022_Hoehe
023_DGPS_Ja.             :023_DGPS_Ja
024_DGPS_Nein.      yes  :024_DGPS_Nein
025_Auftraggeber. Heß, O. (GD NRW)  :025_Auftraggeber
026_Bohrfirma. H. Anger's Söhne_Bohr- und Brunnenbaugesellschaft mbH_Gutenbergstr. 33_37235 Hessisch Lichtenau  :026_Bohrfirma
027_Bohrmeister.   k.A.  :027_Bohrmeister
028_Bohrungsart. Geologische Untersuchung  :028_Bohrungsart
029_Bohrungsverfahren. Kernbohrung  :029_Bohrungsverfahren
030_TeufenBez.      GOK  :030_TeufenBez
031_Messbez.      -1,73  :031_Messbez
032_Bohrbez.        GOK  :032_Bohrbez
033_Bearbeiter.          :033_Bearbeiter
034_Deklination.   1,77  :034_Deklination
100_Stand_ID.       156  :100_Stand_ID
101_Stand_OD.       178  :101_Stand_OD
102_Stand_RL.       1,5  :102_Stand_RL
103_Stand_MA.     Stahl  :103_Stand_MA
104_Stand_vb. -1,02 / 6,12  :104_Stand_vb
105_Stand_MNr.    1 - 3  :105_Stand_MNr
106_StandM_ID.      156  :106_StandM_ID
107_StandM_OD.      178  :107_StandM_OD
108_StandM_RL.     0,11  :108_StandM_RL
109_StandM_MA.    Stahl  :109_StandM_MA
110_StandM_vb. -1,02 / 6,12  :110_StandM_vb
111_StandM_MNr.   1 - 3  :111_StandM_MNr
112_Gest_ID.        126  :112_Gest_ID
113_Gest_OD.        140  :113_Gest_OD
114_Gest_RL.       3,00  :114_Gest_RL
115_Gest_MA.      Stahl  :115_Gest_MA
116_Gest_vb. -1,73 / 90,00  :116_Gest_vb
117_Gest_MNr.         1  :117_Gest_MNr
118_GestM_ID.       126  :118_GestM_ID
119_GestM_OD.       140  :119_GestM_OD
120_GestM_RL.     0,065  :120_GestM_RL
121_GestM_MA.     Stahl  :121_GestM_MA
122_GestM_vb. -1,73 / 90,00  :122_GestM_vb
123_GestM_MNr.        1  :123_GestM_MNr
124_Verr_ID.        ./.  :124_Verr_ID
125_Verr_OD.        ./.  :125_Verr_OD
126_Verr_RL.        ./.  :126_Verr_RL
127_Verr_MA.        ./.  :127_Verr_MA
128_Verr_vb.        ./.  :128_Verr_vb
129_Verr_MNr.       ./.  :129_Verr_MNr
130_oBL_ID.         146  :130_oBL_ID
134_oBL_vb. 6,12 / 90,00  :134_oBL_vb
135_oBL_MNr.      2 - 3  :135_oBL_MNr
136_MeißelA.        PCD  :136_MeißelA
137_MeißelD.        146  :137_MeißelD
138_Sp_Ja.          yes  :138_Sp_Ja
139_Sp_Nein.             :139_Sp_Nein
140_Sp_W.           yes  :140_Sp_W
141_Sp_B.                :141_Sp_B
142_Sp_A.           yes  :142_Sp_A
143_Sp_T.                :143_Sp_T
144_Sp_GW.               :144_Sp_GW
145_Sp_S.                :145_Sp_S
146_SpStop.        k.A.  :146_SpStop
147_SpProbe_Ja.          :147_SpProbe_Ja
148_SpProbe_Nein.   yes  :148_SpProbe_Nein
149_SpProbe_S.           :149_SpProbe_S
150_Dichte.         ./.  :150_Dichte
151_sonstiger_Zusatz. sonstiges  :151_sonstiger_Zusatz
152_sonstige_SPprobe. sonstiges  :152_sonstige_SPprobe
154_VerrM_ID.       ./.  :154_VerrM_ID
155_VerrM_OD.       ./.  :155_VerrM_OD
156_VerrM_RL.       ./.  :156_VerrM_RL
157_VerrM_MA.       ./.  :157_VerrM_MA
158_VerrM_vb.       ./.  :158_VerrM_vb
159_VerrM_MNr.      ./.  :159_VerrM_MNr
200_MessNr#1. 1 aufwärts  :200_MessNr#1
201_Datum#1. 27 Apr 2018  :201_Datum#1
202_Sonde#1.        SGR  :202_Sonde#1
203_RohrÜber#1.   -1,73  :203_RohrÜber#1
204_FlüssigSP#1.  51,04  :204_FlüssigSP#1
205_FlüssigZP#1.   9_45  :205_FlüssigZP#1
206_ErrTiefe#1.   90,00  :206_ErrTiefe#1
207_TiefsterMP#1. 88,93  :207_TiefsterMP#1
208_HöchsterMP#1.  0,34  :208_HöchsterMP#1
209_Messbeginn#1.  9_32  :209_Messbeginn#1
210_MessNr#2. 2 aufwärts  :210_MessNr#2
211_Datum#2. 27 Apr 2018  :211_Datum#2
212_Sonde#2.        OBI  :212_Sonde#2
213_RohrÜber#2.   -1,02  :213_RohrÜber#2
214_FlüssigSP#2.   k.A.  :214_FlüssigSP#2
215_FlüssigZP#2.   k.A.  :215_FlüssigZP#2
216_ErrTiefe#2.   12,50  :216_ErrTiefe#2
217_TiefsterMP#2. 12,43  :217_TiefsterMP#2
218_HöchsterMP#2.  5,44  :218_HöchsterMP#2
219_Messbeginn#2. 12_10  :219_Messbeginn#2
220_MessNr#3. 3 aufwärts  :220_MessNr#3
221_Datum#3. 27 Apr 2018  :221_Datum#3
222_Sonde#3.   GR / FEL  :222_Sonde#3
223_RohrÜber#3.   -1,02  :223_RohrÜber#3
224_FlüssigSP#3.   k.A.  :224_FlüssigSP#3
225_FlüssigZP#3.   k.A.  :225_FlüssigZP#3
226_ErrTiefe#3.   39,06  :226_ErrTiefe#3
227_TiefsterMP#3. 37,99  :227_TiefsterMP#3
228_HöchsterMP#3.  2,80  :228_HöchsterMP#3
229_Messbeginn#3. 12_28  :229_Messbeginn#3
230_MessNr#4.            :230_MessNr#4
231_Datum#4.             :231_Datum#4
232_Sonde#4.             :232_Sonde#4
233_RohrÜber#4.          :233_RohrÜber#4
234_FlüssigSP#4.         :234_FlüssigSP#4
235_FlüssigZP#4.         :235_FlüssigZP#4
236_ErrTiefe#4.          :236_ErrTiefe#4
237_TiefsterMP#4.        :237_TiefsterMP#4
238_HöchsterMP#4.        :238_HöchsterMP#4
239_Messbeginn#4.        :239_Messbeginn#4
240_MessNr#5.            :240_MessNr#5
241_Datum#5.             :241_Datum#5
242_Sonde#5.             :242_Sonde#5
243_RohrÜber#5.          :243_RohrÜber#5
244_FlüssigSP#5.         :244_FlüssigSP#5
245_FlüssigZP#5.         :245_FlüssigZP#5
246_ErrTiefe#5.          :246_ErrTiefe#5
247_TiefsterMP#5.        :247_TiefsterMP#5
248_HöchsterMP#5.        :248_HöchsterMP#5
249_Messbeginn#5.        :249_Messbeginn#5
250_TeufeBM.      90,00  :250_TeufeBM
251_Messwagen. KR-GD 600  :251_Messwagen
252_Messtrupp. Orth / Helbing  :252_Messtrupp
253_Bemerkungen. OBI-Sonde ist bei 12,50 m aufgesetzt._GRFEL-Sonde ist überhalb der Wassersäule bei 39,06 m aufgesetzt, daher keine Wiederstandswerte._Die Stückelung der Schutzverrohrung ist unklar (Überstand 1,02 m gemessen, Ende Schneidschuh 6,12 m ergibt sich durch_OBI)  :253_Bemerkungen
254_Korrekturen. GR_COR / SGR_COR_ Von Bohrlocheinflüssen korrigiertes GR-Log nach (Lehmann, 2010)  :254_Korrekturen
259_Anmerkung. Interpretationen und Beurteilungen der von uns durchgeführten Messungen werden von unserem Personal nach bestem Wissen und Gewissen durchgeführt,_ohne jedoch für die Genauigkeit bzw. Richtigkeit zu garantieren. Ebenso lehnen wir jegliche Haftung oder Verantwortung für irgendwelche Verluste, Kosten oder Schäden ab, die unserem Auftraggeber dadurch entstehen können.  :259_Anmerkung
300_Run#1.            1  :300_Run#1
301_Trip#1.         ./.  :301_Trip#1
302_Gerätedaten#1.  SGR                 LogIn 2901               k.A.                      191 mm  :302_Gerätedaten#1
303_Run#2.            2  :303_Run#2
304_Trip#2.         ./.  :304_Trip#2
305_Gerätedaten#2.  OBI                 ALT QL40-OBI-2G 151105   k.A.                      86.6 mm  :305_Gerätedaten#2
306_Run#3.            3  :306_Run#3
307_Trip#3.         ./.  :307_Trip#3
308_Gerätedaten#3.  GR / FEL            LogIn GaFEL 1125004      05.11.2015 / 22.10.2015   157 / 797 mm  :308_Gerätedaten#3
309_Run#4.               :309_Run#4
310_Trip#4.              :310_Trip#4
311_Gerätedaten#4.       :311_Gerätedaten#4
312_Run#5.               :312_Run#5
313_Trip#5.              :313_Trip#5
314_Gerätedaten#5.       :314_Gerätedaten#5
315_Run#6.               :315_Run#6
316_Trip#6.              :316_Trip#6
317_Gerätedaten#6.       :317_Gerätedaten#6
318_Run#7.               :318_Run#7
319_Trip#7.              :319_Trip#7
320_Gerätedaten#7.       :320_Gerätedaten#7
321_Run#8.               :321_Run#8
322_Trip#8.              :322_Trip#8
323_Gerätedaten#8.       :323_Gerätedaten#8
324_Run#9.               :324_Run#9
325_Trip#9.              :325_Trip#9
326_Gerätedaten#9.       :326_Gerätedaten#9
327_Run#10.              :327_Run#10
328_Trip#10.             :328_Trip#10
329_Gerätedaten#10.      :329_Gerätedaten#10
330_Gerätedaten#0.  GERÄT               SONDEN NR.               LETZTE KALIBRIERUNG       ABSTAND TIEFSTER MESSPUNKT  :330_Gerätedaten#0
#------------------------------------------------------------
~OTHER
#------------------------------------------------------------
~A   MD      SGRRAW         SGR  SGRRAW_COR     SGR_COR       232TH        238U         40K       GRRAW          GR   GRRAW_COR      GR_COR
# ...
     74.5990     7.02399     5.79896     9.12100     7.53023     1.01273    0.000000   0.0210010    -999.250    -999.250    -999.250    -999.250
     74.6500     6.98006     5.67332     9.06390     7.36708     1.08314    0.000000  0.00552031    -999.250    -999.250    -999.250    -999.250
     74.7010     5.75549     5.40828     7.47380     7.02291     1.05401   0.0208424    0.000000    -999.250    -999.250    -999.250    -999.250
     74.7520     4.07421     5.28450     5.29060     6.86221    0.863201    0.120317    0.000000    -999.250    -999.250    -999.250    -999.250
     74.8030     3.63520     5.17046     4.72050     6.71414    0.547829    0.318176    0.000000    -999.250    -999.250    -999.250    -999.250
     74.8540     4.44606     5.21407     5.77340     6.77079    0.263013    0.513211  0.00259663    -999.250    -999.250    -999.250    -999.250
     74.9050     5.24726     5.37445     6.81380     6.97908    0.172289    0.565213   0.0138057    -999.250    -999.250    -999.250    -999.250
     74.9560     4.47730     5.66421     5.81400     7.35538    0.313310    0.485629   0.0233102    -999.250    -999.250    -999.250    -999.250
     75.0070     8.92320     6.11357     11.5881     7.93891    0.501300    0.375566   0.0283838    -999.250    -999.250    -999.250    -999.250
     75.0580     5.27464     6.41906     6.84940     8.33558    0.448682    0.446164   0.0245986    -999.250    -999.250    -999.250    -999.250
     75.1090     6.84217     6.73516     8.88490     8.74603    0.452111    0.488275   0.0153816    -999.250    -999.250    -999.250    -999.250
     75.1600     6.92423     6.98536     8.99150     9.07090    0.556813    0.493953  0.00352011    -999.250    -999.250    -999.250    -999.250
     75.2110     8.12824     7.18671     10.5549     9.33233    0.702329    0.436055    0.000000    -999.250    -999.250    -999.250    -999.250
     75.2620     7.71970     7.26313     10.0244     9.43153    0.805698    0.395788    0.000000    -999.250    -999.250    -999.250    -999.250
     75.3130     6.91198     7.24048     8.97540     9.40209    0.771630    0.441559    0.000000    -999.250    -999.250    -999.250    -999.250
     75.3640     6.85712     7.23230     8.90430     9.39146    0.593092    0.550148  0.00239841    -999.250    -999.250    -999.250    -999.250
     75.4150     7.67642     7.18393     9.96820     9.32864    0.376947    0.633617   0.0153617    -999.250    -999.250    -999.250    -999.250
     75.4660     7.64401     7.04668     9.92610     9.15041    0.228942    0.652098   0.0273916    -999.250    -999.250    -999.250    -999.250
     75.5170     6.51155     6.85647     8.45560     8.90342    0.194985    0.611625   0.0358573    -999.250    -999.250    -999.250    -999.250
     75.5680     7.39579     6.66445     9.60380     8.65407    0.222329    0.549217   0.0380872    -999.250    -999.250    -999.250    -999.250
     75.6190     5.42163     6.42231     7.03990     8.33963    0.261847    0.509570   0.0341235    -999.250    -999.250    -999.250    -999.250
     75.6700     6.99269     6.19479     9.08030     8.04420    0.282973    0.480584   0.0258176    -999.250    -999.250    -999.250    -999.250
     75.7210     5.31112     5.96169     6.89670     7.74151    0.290912    0.464668   0.0189990    -999.250    -999.250    -999.250    -999.250
     75.7720     6.45711     5.83965     8.38510     7.58306    0.285808    0.444958   0.0158280    -999.250    -999.250    -999.250    -999.250
     75.8230     4.82977     5.73030     6.27170     7.44106    0.276581    0.434876   0.0149752    -999.250    -999.250    -999.250    -999.250
     75.8740     5.26741     5.70190     6.84000     7.40418    0.281288    0.438791   0.0130525    -999.250    -999.250    -999.250    -999.250
     75.9250     4.45777     5.82013     5.78850     7.55770    0.328714    0.436700  0.00750330    -999.250    -999.250    -999.250    -999.250
     75.9760     6.92711     6.04282     8.99520     7.84686    0.399187    0.438018    0.000000    -999.250    -999.250    -999.250    -999.250
     76.0270     6.94435     6.27773     9.01760     8.15189    0.471338    0.408741    0.000000    -999.250    -999.250    -999.250    -999.250
     76.0780     5.72698     6.46634     7.43650     8.39680    0.527187    0.391212    0.000000    -999.250    -999.250    -999.250    -999.250
     76.1290     6.06199     6.74085     7.87180     8.75328    0.554053    0.387770    0.000000    -999.250    -999.250    -999.250    -999.250
     76.1800     8.41769     6.99298     10.9308     9.08068    0.570872    0.376462  0.00667988    -999.250    -999.250    -999.250    -999.250
     76.2310     7.25471     7.21628     9.42040     9.37066    0.601888    0.333079   0.0248436    -999.250    -999.250    -999.250    -999.250
     76.2820     7.30135     7.39768     9.48120     9.60623    0.621070    0.336095   0.0366402    -999.250    -999.250    -999.250    -999.250
     76.3330     6.91091     7.62771     8.97410     9.90495    0.653458    0.350832   0.0446977    -999.250    -999.250    -999.250    -999.250
     76.3840     8.08912     7.94066     10.5043     10.3113    0.679272    0.377350   0.0495334    -999.250    -999.250    -999.250    -999.250
     76.4350     6.48831     8.26179     8.42540     10.7283    0.702993    0.417056   0.0515361    -999.250    -999.250    -999.250    -999.250
     76.4860     10.5305     8.65338     13.6743     11.2368    0.699276    0.471268   0.0493756    -999.250    -999.250    -999.250    -999.250
     76.5370     8.54288     8.96471     11.0933     11.6411    0.665361    0.538959   0.0450743    -999.250    -999.250    -999.250    -999.250
     76.5880     9.42657     9.20472     12.2409     11.9528    0.619058    0.595649   0.0411496    -999.250    -999.250    -999.250    -999.250
     76.6390     9.86242     9.24808     12.8068     12.0091    0.610039    0.593786   0.0398216    -999.250    -999.250    -999.250    -999.250
     76.6900     10.7456     9.09337     13.9536     11.8082    0.663776    0.536313   0.0390783    -999.250    -999.250    -999.250    -999.250
     76.7410     9.45149     8.70276     12.2732     11.3009    0.769474    0.433201   0.0344103    -999.250    -999.250    -999.250    -999.250
     76.7920     9.75389     8.16936     12.6659     10.6083    0.410337    0.631873   0.0245391    -999.250    -999.250    -999.250    -999.250
     76.8430     7.26345     7.46515     9.43190     9.69383    0.300703    0.667443   0.0143707    -999.250    -999.250    -999.250    -999.250
     76.8940     4.47238     6.69570     5.80760     8.69467    0.194797    0.708077  0.00509415    -999.250    -999.250    -999.250    -999.250
     76.9450     5.68352     6.12986     7.38030     7.95990    0.102666    0.718721    0.000000    -999.250    -999.250    -999.250    -999.250
     76.9960     4.90936     5.64569     6.37500     7.33118   0.0409911    0.704400  0.000297324    -999.250    -999.250    -999.250    -999.250
     77.0470     7.27439     5.34527     9.44610     6.94107  0.00976213    0.641189  0.00815659    -999.250    -999.250    -999.250    -999.250
     77.0980     2.82815     5.01708     3.67250     6.51490   0.0779583    0.512785   0.0237364    -999.250    -999.250    -999.250    -999.250
     77.1490     3.63570     4.99431     4.72110     6.48534    0.193508    0.393716   0.0351734    -999.250    -999.250    -999.250    -999.250
     77.2000     6.84777     5.19689     8.89210     6.74839    0.291873    0.295946   0.0484638    -999.250    -999.250    -999.250    -999.250
     77.2510     4.44485     5.27682     5.77190     6.85220    0.330188    0.255272   0.0610208    -999.250    -999.250    -999.250    -999.250
     77.3020     5.68820     5.46889     7.38640     7.10160    0.377254    0.224975   0.0709018    -999.250    -999.250    -999.250    -999.250
     77.3530     4.09737     5.60618     5.32060     7.27988    0.427988    0.207849   0.0769772    -999.250    -999.250    -999.250    -999.250
     77.4040     6.89762     5.91231     8.95690     7.67740    0.349425    0.294380   0.0727750    -999.250    -999.250    -999.250    -999.250
