#------------------------------------------------------------
~VERSION INFORMATION
VERS.               2.0  :CWLS LOG ASCII STANDARD - VERSION 2.0
WRAP.                NO  :ONE LINE PER DEPTH STEP
#------------------------------------------------------------
~WELL INFORMATION
STRT.M         0.343000  :FIRST INDEX VALUE
STOP.M          88.9300  :LAST INDEX VALUE
STEP.M        0.0510000  :STEP
NULL.           -999.25  :NULL VALUE
COMP.                    :COMPANY
WELL.                    :WELL
FLD.                     :FIELD
LOC.                     :LOCATION
SRVC.                    :
CTRY. Germany            :COUNTRY
STAT.                    :STATE
CNTY.                    :
DATE.                    :DATE
API.                     :
#------------------------------------------------------------
~CURVE INFORMATION
MD                       :DEPTH
SGRRAW.API               :SGRRaw
SGR.API                  :SGR
SGRRAW_COR.API           :SGRRAW_COR
SGR_COR.API              :SGR_COR
232TH.PPM                :232TH
238U.PPM                 :238U
40K.%                    :40K
GRRAW.API                :GRRaw
GR.API                   :GR
GRRAW_COR.API            :GRRAW_COR
GR_COR.API               :GR_COR
#------------------------------------------------------------
~PARAMETER INFORMATION
001_Bohrungsnummer. 314532  :001_Bohrungsnummer
002_Firma. Geologischer Dienst NRW_Fachbereich 34_Geophysik, Landeserdbebendienst_34.23 Bohrlochgeophysik_De-Greiff-Straße 195_47803 Krefeld  :002_Firma
003_GR.                  :003_GR
004_GR_FEL.         yes  :004_GR_FEL
005_GR_SAL_TEMP.         :005_GR_SAL_TEMP
006_SGR.            yes  :006_SGR
007_CAL3.                :007_CAL3
008_ORI.                 :008_ORI
009_SUSZ.                :009_SUSZ
010_OBI.            yes  :010_OBI
011_STpF.                :011_STpF
012_SAMP.                :012_SAMP
013_Log_Feld.            :013_Log_Feld
014_Log_End.        yes  :014_Log_End
015_Teufenskala.    200  :015_Teufenskala
016_Bohrung. IGL Hastenrath_Albertstraße 57_52249 Eschweiler  :016_Bohrung
017_TK25. 5203 Stolberg (Rheinland)  :017_TK25
018_Land.   Deutschland  :018_Land
019_Koordinaten#1. 32U 307542,00 +/- 5 m  :019_Koordinaten#1
020_Koordinaten#2. UTM 5629294,00 +/- 5 m  :020_Koordinaten#2
021_Koordinaten#3. (UTM 32.Zone ETRS89)  :021_Koordinaten#3
022_Hoehe.       233,00  :022_Hoehe
023_DGPS_Ja.             :023_DGPS_Ja
024_DGPS_Nein.      yes  :024_DGPS_Nein
025_Auftraggeber. Heß, O. (GD NRW)  :025_Auftraggeber
026_Bohrfirma. H. Anger's Söhne_Bohr- und Brunnenbaugesellschaft mbH_Gutenbergstr. 33_37235 Hessisch Lichtenau  :026_Bohrfirma
027_Bohrmeister.   k.A.  :027_Bohrmeister
028_Bohrungsart. Geologische Untersuchung  :028_Bohrungsart
029_Bohrungsverfahren. Kernbohrung  :029_Bohrungsverfahren
030_TeufenBez.      GOK  :030_TeufenBez
031_Messbez.      -1,73  :031_Messbez
032_Bohrbez.        GOK  :032_Bohrbez
033_Bearbeiter.          :033_Bearbeiter
034_Deklination.   1,77  :034_Deklination
100_Stand_ID.       156  :100_Stand_ID
101_Stand_OD.       178  :101_Stand_OD
102_Stand_RL.       1,5  :102_Stand_RL
103_Stand_MA.     Stahl  :103_Stand_MA
104_Stand_vb. -1,02 / 6,12  :104_Stand_vb
105_Stand_MNr.    1 - 3  :105_Stand_MNr
106_StandM_ID.      156  :106_StandM_ID
107_StandM_OD.      178  :107_StandM_OD
108_StandM_RL.     0,11  :108_StandM_RL
109_StandM_MA.    Stahl  :109_StandM_MA
110_StandM_vb. -1,02 / 6,12  :110_StandM_vb
111_StandM_MNr.   1 - 3  :111_StandM_MNr
112_Gest_ID.        126  :112_Gest_ID
113_Gest_OD.        140  :113_Gest_OD
114_Gest_RL.       3,00  :114_Gest_RL
115_Gest_MA.      Stahl  :115_Gest_MA
116_Gest_vb. -1,73 / 90,00  :116_Gest_vb
117_Gest_MNr.         1  :117_Gest_MNr
118_GestM_ID.       126  :118_GestM_ID
119_GestM_OD.       140  :119_GestM_OD
120_GestM_RL.     0,065  :120_GestM_RL
121_GestM_MA.     Stahl  :121_GestM_MA
122_GestM_vb. -1,73 / 90,00  :122_GestM_vb
123_GestM_MNr.        1  :123_GestM_MNr
124_Verr_ID.        ./.  :124_Verr_ID
125_Verr_OD.        ./.  :125_Verr_OD
126_Verr_RL.        ./.  :126_Verr_RL
127_Verr_MA.        ./.  :127_Verr_MA
128_Verr_vb.        ./.  :128_Verr_vb
129_Verr_MNr.       ./.  :129_Verr_MNr
130_oBL_ID.         146  :130_oBL_ID
134_oBL_vb. 6,12 / 90,00  :134_oBL_vb
135_oBL_MNr.      2 - 3  :135_oBL_MNr
136_MeißelA.        PCD  :136_MeißelA
137_MeißelD.        146  :137_MeißelD
138_Sp_Ja.          yes  :138_Sp_Ja
139_Sp_Nein.             :139_Sp_Nein
140_Sp_W.           yes  :140_Sp_W
141_Sp_B.                :141_Sp_B
142_Sp_A.           yes  :142_Sp_A
143_Sp_T.                :143_Sp_T
144_Sp_GW.               :144_Sp_GW
145_Sp_S.                :145_Sp_S
146_SpStop.        k.A.  :146_SpStop
147_SpProbe_Ja.          :147_SpProbe_Ja
148_SpProbe_Nein.   yes  :148_SpProbe_Nein
149_SpProbe_S.           :149_SpProbe_S
150_Dichte.         ./.  :150_Dichte
151_sonstiger_Zusatz. sonstiges  :151_sonstiger_Zusatz
152_sonstige_SPprobe. sonstiges  :152_sonstige_SPprobe
154_VerrM_ID.       ./.  :154_VerrM_ID
155_VerrM_OD.       ./.  :155_VerrM_OD
156_VerrM_RL.       ./.  :156_VerrM_RL
157_VerrM_MA.       ./.  :157_VerrM_MA
158_VerrM_vb.       ./.  :158_VerrM_vb
159_VerrM_MNr.      ./.  :159_VerrM_MNr
200_MessNr#1. 1 aufwärts  :200_MessNr#1
201_Datum#1. 27 Apr 2018  :201_Datum#1
202_Sonde#1.        SGR  :202_Sonde#1
203_RohrÜber#1.   -1,73  :203_RohrÜber#1
204_FlüssigSP#1.  51,04  :204_FlüssigSP#1
205_FlüssigZP#1.   9_45  :205_FlüssigZP#1
206_ErrTiefe#1.   90,00  :206_ErrTiefe#1
207_TiefsterMP#1. 88,93  :207_TiefsterMP#1
208_HöchsterMP#1.  0,34  :208_HöchsterMP#1
209_Messbeginn#1.  9_32  :209_Messbeginn#1
210_MessNr#2. 2 aufwärts  :210_MessNr#2
211_Datum#2. 27 Apr 2018  :211_Datum#2
212_Sonde#2.        OBI  :212_Sonde#2
213_RohrÜber#2.   -1,02  :213_RohrÜber#2
214_FlüssigSP#2.   k.A.  :214_FlüssigSP#2
215_FlüssigZP#2.   k.A.  :215_FlüssigZP#2
216_ErrTiefe#2.   12,50  :216_ErrTiefe#2
217_TiefsterMP#2. 12,43  :217_TiefsterMP#2
218_HöchsterMP#2.  5,44  :218_HöchsterMP#2
219_Messbeginn#2. 12_10  :219_Messbeginn#2
220_MessNr#3. 3 aufwärts  :220_MessNr#3
221_Datum#3. 27 Apr 2018  :221_Datum#3
222_Sonde#3.   GR / FEL  :222_Sonde#3
223_RohrÜber#3.   -1,02  :223_RohrÜber#3
224_FlüssigSP#3.   k.A.  :224_FlüssigSP#3
225_FlüssigZP#3.   k.A.  :225_FlüssigZP#3
226_ErrTiefe#3.   39,06  :226_ErrTiefe#3
227_TiefsterMP#3. 37,99  :227_TiefsterMP#3
228_HöchsterMP#3.  2,80  :228_HöchsterMP#3
229_Messbeginn#3. 12_28  :229_Messbeginn#3
230_MessNr#4.            :230_MessNr#4
231_Datum#4.             :231_Datum#4
232_Sonde#4.             :232_Sonde#4
233_RohrÜber#4.          :233_RohrÜber#4
234_FlüssigSP#4.         :234_FlüssigSP#4
235_FlüssigZP#4.         :235_FlüssigZP#4
236_ErrTiefe#4.          :236_ErrTiefe#4
237_TiefsterMP#4.        :237_TiefsterMP#4
238_HöchsterMP#4.        :238_HöchsterMP#4
239_Messbeginn#4.        :239_Messbeginn#4
240_MessNr#5.            :240_MessNr#5
241_Datum#5.             :241_Datum#5
242_Sonde#5.             :242_Sonde#5
243_RohrÜber#5.          :243_RohrÜber#5
244_FlüssigSP#5.         :244_FlüssigSP#5
245_FlüssigZP#5.         :245_FlüssigZP#5
246_ErrTiefe#5.          :246_ErrTiefe#5
247_TiefsterMP#5.        :247_TiefsterMP#5
248_HöchsterMP#5.        :248_HöchsterMP#5
249_Messbeginn#5.        :249_Messbeginn#5
250_TeufeBM.      90,00  :250_TeufeBM
251_Messwagen. KR-GD 600  :251_Messwagen
252_Messtrupp. Orth / Helbing  :252_Messtrupp
253_Bemerkungen. OBI-Sonde ist bei 12,50 m aufgesetzt._GRFEL-Sonde ist überhalb der Wassersäule bei 39,06 m aufgesetzt, daher keine Wiederstandswerte._Die Stückelung der Schutzverrohrung ist unklar (Überstand 1,02 m gemessen, Ende Schneidschuh 6,12 m ergibt sich durch_OBI)  :253_Bemerkungen
254_Korrekturen. GR_COR / SGR_COR_ Von Bohrlocheinflüssen korrigiertes GR-Log nach (Lehmann, 2010)  :254_Korrekturen
259_Anmerkung. Interpretationen und Beurteilungen der von uns durchgeführten Messungen werden von unserem Personal nach bestem Wissen und Gewissen durchgeführt,_ohne jedoch für die Genauigkeit bzw. Richtigkeit zu garantieren. Ebenso lehnen wir jegliche Haftung oder Verantwortung für irgendwelche Verluste, Kosten oder Schäden ab, die unserem Auftraggeber dadurch entstehen können.  :259_Anmerkung
300_Run#1.            1  :300_Run#1
301_Trip#1.         ./.  :301_Trip#1
302_Gerätedaten#1.  SGR                 LogIn 2901               k.A.                      191 mm  :302_Gerätedaten#1
303_Run#2.            2  :303_Run#2
304_Trip#2.         ./.  :304_Trip#2
305_Gerätedaten#2.  OBI                 ALT QL40-OBI-2G 151105   k.A.                      86.6 mm  :305_Gerätedaten#2
306_Run#3.            3  :306_Run#3
307_Trip#3.         ./.  :307_Trip#3
308_Gerätedaten#3.  GR / FEL            LogIn GaFEL 1125004      05.11.2015 / 22.10.2015   157 / 797 mm  :308_Gerätedaten#3
309_Run#4.               :309_Run#4
310_Trip#4.              :310_Trip#4
311_Gerätedaten#4.       :311_Gerätedaten#4
312_Run#5.               :312_Run#5
313_Trip#5.              :313_Trip#5
314_Gerätedaten#5.       :314_Gerätedaten#5
315_Run#6.               :315_Run#6
316_Trip#6.              :316_Trip#6
317_Gerätedaten#6.       :317_Gerätedaten#6
318_Run#7.               :318_Run#7
319_Trip#7.              :319_Trip#7
320_Gerätedaten#7.       :320_Gerätedaten#7
321_Run#8.               :321_Run#8
322_Trip#8.              :322_Trip#8
323_Gerätedaten#8.       :323_Gerätedaten#8
324_Run#9.               :324_Run#9
325_Trip#9.              :325_Trip#9
326_Gerätedaten#9.       :326_Gerätedaten#9
327_Run#10.              :327_Run#10
328_Trip#10.             :328_Trip#10
329_Gerätedaten#10.      :329_Gerätedaten#10
330_Gerätedaten#0.  GERÄT               SONDEN NR.               LETZTE KALIBRIERUNG       ABSTAND TIEFSTER MESSPUNKT  :330_Gerätedaten#0
#------------------------------------------------------------
~OTHER
#------------------------------------------------------------
~A   MD      SGRRAW         SGR  SGRRAW_COR     SGR_COR       232TH        238U         40K       GRRAW          GR   GRRAW_COR      GR_COR
# ...
     63.1750     6.92806     9.27286     8.99640     12.0413   0.0610902    0.958404   0.0246977    -999.250    -999.250    -999.250    -999.250
     63.2260     9.37955     9.18202     12.1800     11.9234    0.133126    0.925047   0.0284140    -999.250    -999.250    -999.250    -999.250
     63.2770     7.33559     9.15655     9.52560     11.8903    0.254638    0.860188   0.0309415    -999.250    -999.250    -999.250    -999.250
     63.3280     10.1491     9.17514     13.1791     11.9144    0.376709    0.787135   0.0301090    -999.250    -999.250    -999.250    -999.250
     63.3790     12.9907     9.01643     16.8693     11.7083    0.464681    0.728844   0.0261846    -999.250    -999.250    -999.250    -999.250
     63.4300     6.46435     8.63756     8.39430     11.2164    0.509405    0.681754   0.0202973    -999.250    -999.250    -999.250    -999.250
     63.4810     8.10482     8.50099     10.5245     11.0390    0.530743    0.652130   0.0140238    -999.250    -999.250    -999.250    -999.250
     63.5320     9.74839     8.37577     12.6589     10.8764    0.531893    0.636145  0.00849397    -999.250    -999.250    -999.250    -999.250
     63.5830     6.89951     8.26094     8.95930     10.7273    0.506471    0.638582  0.00531219    -999.250    -999.250    -999.250    -999.250
     63.6340     5.28118     8.19011     6.85790     10.6353    0.457621    0.663617  0.00568880    -999.250    -999.250    -999.250    -999.250
     63.6850     8.14371     8.48133     10.5753     11.0135    0.411787    0.697390  0.00924651    -999.250    -999.250    -999.250    -999.250
     63.7360     10.1533     8.93006     13.1846     11.5962    0.408037    0.714638   0.0138256    -999.250    -999.250    -999.250    -999.250
     63.7870     9.68989     9.29037     12.5828     12.0640    0.468216    0.708325   0.0162240    -999.250    -999.250    -999.250    -999.250
     63.8380     10.4916     9.55221     13.6239     12.4040    0.581389    0.695402   0.0137564    -999.250    -999.250    -999.250    -999.250
     63.8890     8.04742     9.70788     10.4500     12.6061    0.705322    0.684380  0.00648166    -999.250    -999.250    -999.250    -999.250
     63.9400     13.4467     9.86896     17.4612     12.8153    0.809851    0.686729    0.000000    -999.250    -999.250    -999.250    -999.250
     63.9910     8.96730     9.72475     11.6440     12.6280    0.834576    0.685252    0.000000    -999.250    -999.250    -999.250    -999.250
     64.0420     10.6591     9.54713     13.8413     12.3973    0.770287    0.729276  0.00203171    -999.250    -999.250    -999.250    -999.250
     64.0930     7.73033     9.42308     10.0382     12.2363    0.615441    0.783666   0.0115064    -999.250    -999.250    -999.250    -999.250
     64.1440     7.41228     9.41170     9.62520     12.2215    0.411585    0.898136   0.0200000    -999.250    -999.250    -999.250    -999.250
     64.1950     9.39010     9.55049     12.1935     12.4017    0.234886    0.981238   0.0252032    -999.250    -999.250    -999.250    -999.250
     64.2460     10.6222     9.62622     13.7935     12.5001    0.121576     1.04683   0.0266006    -999.250    -999.250    -999.250    -999.250
     64.2970     8.58781     9.79744     11.1517     12.7224    0.145936     1.00204   0.0336868    -999.250    -999.250    -999.250    -999.250
     64.3480     13.0934     10.1693     17.0024     13.2053    0.112428    0.982338   0.0465510    -999.250    -999.250    -999.250    -999.250
     64.3990     9.82688     10.5278     12.7607     13.6709    0.129732    0.913587   0.0698017    -999.250    -999.250    -999.250    -999.250
     64.4500     9.73915     10.9724     12.6467     14.2482    0.138573    0.853627   0.0973934    -999.250    -999.250    -999.250    -999.250
     64.5010     8.46247     11.4194     10.9889     14.8287    0.105005    0.876699    0.119039    -999.250    -999.250    -999.250    -999.250
     64.5520     11.2358     12.0635     14.5902     15.6651   0.0438355    0.993746    0.126085    -999.250    -999.250    -999.250    -999.250
     64.6030     15.4309     12.8728     20.0378     16.7159    0.000000     1.17637    0.118741    -999.250    -999.250    -999.250    -999.250
     64.6540     15.0476     13.4557     19.5400     17.4729    0.000000     1.34278   0.0982854    -999.250    -999.250    -999.250    -999.250
     64.7050     15.0228     13.8348     19.5078     17.9651    0.000000     1.48620   0.0732804    -999.250    -999.250    -999.250    -999.250
     64.7560     12.1522     14.1031     15.7802     18.3135   0.0180971     1.57492   0.0504658    -999.250    -999.250    -999.250    -999.250
     64.8070     14.6308     14.3311     18.9988     18.6097    0.108860     1.58187   0.0332111    -999.250    -999.250    -999.250    -999.250
     64.8580     17.7940     14.4592     23.1063     18.7760    0.259366     1.50426   0.0205253    -999.250    -999.250    -999.250    -999.250
     64.9090     14.1272     14.1841     18.3449     18.4187    0.467958     1.38415   0.0103469    -999.250    -999.250    -999.250    -999.250
     64.9600     9.66216     14.0322     12.5468     18.2215    0.690673     1.26415  0.000703667    -999.250    -999.250    -999.250    -999.250
     65.0110     16.2297     14.3306     21.0750     18.6089    0.867006     1.18144    0.000000    -999.250    -999.250    -999.250    -999.250
     65.0620     13.1189     14.7827     17.0355     19.1960    0.921764     1.21221    0.000000    -999.250    -999.250    -999.250    -999.250
     65.1130     17.1994     15.3968     22.3343     19.9935    0.855143     1.34098    0.000000    -999.250    -999.250    -999.250    -999.250
     65.1640     9.83643     16.1374     12.7731     20.9551    0.755619     1.53533    0.000000    -999.250    -999.250    -999.250    -999.250
     65.2150     17.2592     17.4675     22.4119     22.6824    0.691288     1.74478    0.000000    -999.250    -999.250    -999.250    -999.250
     65.2660     20.4869     19.0883     26.6032     24.7870    0.689445     1.92257    0.000000    -999.250    -999.250    -999.250    -999.250
     65.3170     22.9708     20.5445     29.8286     26.6781    0.745084     2.07776    0.000000    -999.250    -999.250    -999.250    -999.250
     65.3680     19.9197     21.8733     25.8666     28.4036    0.795877     2.19429    0.000000    -999.250    -999.250    -999.250    -999.250
     65.4190     24.3178     22.9936     31.5778     29.8584    0.789821     2.32119    0.000000    -999.250    -999.250    -999.250    -999.250
     65.4700     23.1051     23.7503     30.0030     30.8410    0.678176     2.46068    0.000000    -999.250    -999.250    -999.250    -999.250
     65.5210     30.8522     24.0283     40.0645     31.2020    0.487382     2.57810    0.000000    -999.250    -999.250    -999.250    -999.250
     65.5720     25.3909     23.5401     32.9712     30.5680    0.308176     2.58117    0.000000    -999.250    -999.250    -999.250    -999.250
     65.6230     25.1215     22.5456     32.6215     29.2765    0.199029     2.50412    0.000000    -999.250    -999.250    -999.250    -999.250
     65.6740     19.2159     21.0730     24.9516     27.3642    0.160789     2.33928    0.000000    -999.250    -999.250    -999.250    -999.250
     65.7250     18.3466     19.3455     23.8239     25.1210    0.182676     2.05120  0.00749256    -999.250    -999.250    -999.250    -999.250
     65.7760     19.1409     17.5331     24.8553     22.7674    0.284608     1.64423   0.0333102    -999.250    -999.250    -999.250    -999.250
     65.8270     16.8609     15.6157     21.8942     20.2775    0.441205     1.21211   0.0576574    -999.250    -999.250    -999.250    -999.250
     65.8780     12.0695     14.0171     15.6728     18.2017    0.633409    0.847363   0.0791674    -999.250    -999.250    -999.250    -999.250
     65.9290     10.0593     12.6803     13.0624     16.4659    0.808860    0.569722   0.0951536    -999.250    -999.250    -999.250    -999.250
     65.9800     9.33731     11.7667     12.1248     15.2796    0.929763    0.408597    0.106678    -999.250    -999.250    -999.250    -999.250
