#------------------------------------------------------------
~VERSION INFORMATION
VERS.               2.0  :CWLS LOG ASCII STANDARD - VERSION 2.0
WRAP.                NO  :ONE LINE PER DEPTH STEP
#------------------------------------------------------------
~WELL INFORMATION
STRT.M         0.343000  :FIRST INDEX VALUE
STOP.M          88.9300  :LAST INDEX VALUE
STEP.M        0.0510000  :STEP
NULL.           -999.25  :NULL VALUE
COMP.                    :COMPANY
WELL.                    :WELL
FLD.                     :FIELD
LOC.                     :LOCATION
SRVC.                    :
CTRY. Germany            :COUNTRY
STAT.                    :STATE
CNTY.                    :
DATE.                    :DATE
API.                     :
#------------------------------------------------------------
~CURVE INFORMATION
MD                       :DEPTH
SGRRAW.API               :SGRRaw
SGR.API                  :SGR
SGRRAW_COR.API           :SGRRAW_COR
SGR_COR.API              :SGR_COR
232TH.PPM                :232TH
238U.PPM                 :238U
40K.%                    :40K
GRRAW.API                :GRRaw
GR.API                   :GR
GRRAW_COR.API            :GRRAW_COR
GR_COR.API               :GR_COR
#------------------------------------------------------------
~PARAMETER INFORMATION
001_Bohrungsnummer. 314532  :001_Bohrungsnummer
002_Firma. Geologischer Dienst NRW_Fachbereich 34_Geophysik, Landeserdbebendienst_34.23 Bohrlochgeophysik_De-Greiff-Straße 195_47803 Krefeld  :002_Firma
003_GR.                  :003_GR
004_GR_FEL.         yes  :004_GR_FEL
005_GR_SAL_TEMP.         :005_GR_SAL_TEMP
006_SGR.            yes  :006_SGR
007_CAL3.                :007_CAL3
008_ORI.                 :008_ORI
009_SUSZ.                :009_SUSZ
010_OBI.            yes  :010_OBI
011_STpF.                :011_STpF
012_SAMP.                :012_SAMP
013_Log_Feld.            :013_Log_Feld
014_Log_End.        yes  :014_Log_End
015_Teufenskala.    200  :015_Teufenskala
016_Bohrung. IGL Hastenrath_Albertstraße 57_52249 Eschweiler  :016_Bohrung
017_TK25. 5203 Stolberg (Rheinland)  :017_TK25
018_Land.   Deutschland  :018_Land
019_Koordinaten#1. 32U 307542,00 +/- 5 m  :019_Koordinaten#1
020_Koordinaten#2. UTM 5629294,00 +/- 5 m  :020_Koordinaten#2
021_Koordinaten#3. (UTM 32.Zone ETRS89)  :021_Koordinaten#3
022_Hoehe.       233,00  :022_Hoehe
023_DGPS_Ja.             :023_DGPS_Ja
024_DGPS_Nein.      yes  :024_DGPS_Nein
025_Auftraggeber. Heß, O. (GD NRW)  :025_Auftraggeber
026_Bohrfirma. H. Anger's Söhne_Bohr- und Brunnenbaugesellschaft mbH_Gutenbergstr. 33_37235 Hessisch Lichtenau  :026_Bohrfirma
027_Bohrmeister.   k.A.  :027_Bohrmeister
028_Bohrungsart. Geologische Untersuchung  :028_Bohrungsart
029_Bohrungsverfahren. Kernbohrung  :029_Bohrungsverfahren
030_TeufenBez.      GOK  :030_TeufenBez
031_Messbez.      -1,73  :031_Messbez
032_Bohrbez.        GOK  :032_Bohrbez
033_Bearbeiter.          :033_Bearbeiter
034_Deklination.   1,77  :034_Deklination
100_Stand_ID.       156  :100_Stand_ID
101_Stand_OD.       178  :101_Stand_OD
102_Stand_RL.       1,5  :102_Stand_RL
103_Stand_MA.     Stahl  :103_Stand_MA
104_Stand_vb. -1,02 / 6,12  :104_Stand_vb
105_Stand_MNr.    1 - 3  :105_Stand_MNr
106_StandM_ID.      156  :106_StandM_ID
107_StandM_OD.      178  :107_StandM_OD
108_StandM_RL.     0,11  :108_StandM_RL
109_StandM_MA.    Stahl  :109_StandM_MA
110_StandM_vb. -1,02 / 6,12  :110_StandM_vb
111_StandM_MNr.   1 - 3  :111_StandM_MNr
112_Gest_ID.        126  :112_Gest_ID
113_Gest_OD.        140  :113_Gest_OD
114_Gest_RL.       3,00  :114_Gest_RL
115_Gest_MA.      Stahl  :115_Gest_MA
116_Gest_vb. -1,73 / 90,00  :116_Gest_vb
117_Gest_MNr.         1  :117_Gest_MNr
118_GestM_ID.       126  :118_GestM_ID
119_GestM_OD.       140  :119_GestM_OD
120_GestM_RL.     0,065  :120_GestM_RL
121_GestM_MA.     Stahl  :121_GestM_MA
122_GestM_vb. -1,73 / 90,00  :122_GestM_vb
123_GestM_MNr.        1  :123_GestM_MNr
124_Verr_ID.        ./.  :124_Verr_ID
125_Verr_OD.        ./.  :125_Verr_OD
126_Verr_RL.        ./.  :126_Verr_RL
127_Verr_MA.        ./.  :127_Verr_MA
128_Verr_vb.        ./.  :128_Verr_vb
129_Verr_MNr.       ./.  :129_Verr_MNr
130_oBL_ID.         146  :130_oBL_ID
134_oBL_vb. 6,12 / 90,00  :134_oBL_vb
135_oBL_MNr.      2 - 3  :135_oBL_MNr
136_MeißelA.        PCD  :136_MeißelA
137_MeißelD.        146  :137_MeißelD
138_Sp_Ja.          yes  :138_Sp_Ja
139_Sp_Nein.             :139_Sp_Nein
140_Sp_W.           yes  :140_Sp_W
141_Sp_B.                :141_Sp_B
142_Sp_A.           yes  :142_Sp_A
143_Sp_T.                :143_Sp_T
144_Sp_GW.               :144_Sp_GW
145_Sp_S.                :145_Sp_S
146_SpStop.        k.A.  :146_SpStop
147_SpProbe_Ja.          :147_SpProbe_Ja
148_SpProbe_Nein.   yes  :148_SpProbe_Nein
149_SpProbe_S.           :149_SpProbe_S
150_Dichte.         ./.  :150_Dichte
151_sonstiger_Zusatz. sonstiges  :151_sonstiger_Zusatz
152_sonstige_SPprobe. sonstiges  :152_sonstige_SPprobe
154_VerrM_ID.       ./.  :154_VerrM_ID
155_VerrM_OD.       ./.  :155_VerrM_OD
156_VerrM_RL.       ./.  :156_VerrM_RL
157_VerrM_MA.       ./.  :157_VerrM_MA
158_VerrM_vb.       ./.  :158_VerrM_vb
159_VerrM_MNr.      ./.  :159_VerrM_MNr
200_MessNr#1. 1 aufwärts  :200_MessNr#1
201_Datum#1. 27 Apr 2018  :201_Datum#1
202_Sonde#1.        SGR  :202_Sonde#1
203_RohrÜber#1.   -1,73  :203_RohrÜber#1
204_FlüssigSP#1.  51,04  :204_FlüssigSP#1
205_FlüssigZP#1.   9_45  :205_FlüssigZP#1
206_ErrTiefe#1.   90,00  :206_ErrTiefe#1
207_TiefsterMP#1. 88,93  :207_TiefsterMP#1
208_HöchsterMP#1.  0,34  :208_HöchsterMP#1
209_Messbeginn#1.  9_32  :209_Messbeginn#1
210_MessNr#2. 2 aufwärts  :210_MessNr#2
211_Datum#2. 27 Apr 2018  :211_Datum#2
212_Sonde#2.        OBI  :212_Sonde#2
213_RohrÜber#2.   -1,02  :213_RohrÜber#2
214_FlüssigSP#2.   k.A.  :214_FlüssigSP#2
215_FlüssigZP#2.   k.A.  :215_FlüssigZP#2
216_ErrTiefe#2.   12,50  :216_ErrTiefe#2
217_TiefsterMP#2. 12,43  :217_TiefsterMP#2
218_HöchsterMP#2.  5,44  :218_HöchsterMP#2
219_Messbeginn#2. 12_10  :219_Messbeginn#2
220_MessNr#3. 3 aufwärts  :220_MessNr#3
221_Datum#3. 27 Apr 2018  :221_Datum#3
222_Sonde#3.   GR / FEL  :222_Sonde#3
223_RohrÜber#3.   -1,02  :223_RohrÜber#3
224_FlüssigSP#3.   k.A.  :224_FlüssigSP#3
225_FlüssigZP#3.   k.A.  :225_FlüssigZP#3
226_ErrTiefe#3.   39,06  :226_ErrTiefe#3
227_TiefsterMP#3. 37,99  :227_TiefsterMP#3
228_HöchsterMP#3.  2,80  :228_HöchsterMP#3
229_Messbeginn#3. 12_28  :229_Messbeginn#3
230_MessNr#4.            :230_MessNr#4
231_Datum#4.             :231_Datum#4
232_Sonde#4.             :232_Sonde#4
233_RohrÜber#4.          :233_RohrÜber#4
234_FlüssigSP#4.         :234_FlüssigSP#4
235_FlüssigZP#4.         :235_FlüssigZP#4
236_ErrTiefe#4.          :236_ErrTiefe#4
237_TiefsterMP#4.        :237_TiefsterMP#4
238_HöchsterMP#4.        :238_HöchsterMP#4
239_Messbeginn#4.        :239_Messbeginn#4
240_MessNr#5.            :240_MessNr#5
241_Datum#5.             :241_Datum#5
242_Sonde#5.             :242_Sonde#5
243_RohrÜber#5.          :243_RohrÜber#5
244_FlüssigSP#5.         :244_FlüssigSP#5
245_FlüssigZP#5.         :245_FlüssigZP#5
246_ErrTiefe#5.          :246_ErrTiefe#5
247_TiefsterMP#5.        :247_TiefsterMP#5
248_HöchsterMP#5.        :248_HöchsterMP#5
249_Messbeginn#5.        :249_Messbeginn#5
250_TeufeBM.      90,00  :250_TeufeBM
251_Messwagen. KR-GD 600  :251_Messwagen
252_Messtrupp. Orth / Helbing  :252_Messtrupp
253_Bemerkungen. OBI-Sonde ist bei 12,50 m aufgesetzt._GRFEL-Sonde ist überhalb der Wassersäule bei 39,06 m aufgesetzt, daher keine Wiederstandswerte._Die Stückelung der Schutzverrohrung ist unklar (Überstand 1,02 m gemessen, Ende Schneidschuh 6,12 m ergibt sich durch_OBI)  :253_Bemerkungen
254_Korrekturen. GR_COR / SGR_COR_ Von Bohrlocheinflüssen korrigiertes GR-Log nach (Lehmann, 2010)  :254_Korrekturen
259_Anmerkung. Interpretationen und Beurteilungen der von uns durchgeführten Messungen werden von unserem Personal nach bestem Wissen und Gewissen durchgeführt,_ohne jedoch für die Genauigkeit bzw. Richtigkeit zu garantieren. Ebenso lehnen wir jegliche Haftung oder Verantwortung für irgendwelche Verluste, Kosten oder Schäden ab, die unserem Auftraggeber dadurch entstehen können.  :259_Anmerkung
300_Run#1.            1  :300_Run#1
301_Trip#1.         ./.  :301_Trip#1
302_Gerätedaten#1.  SGR                 LogIn 2901               k.A.                      191 mm  :302_Gerätedaten#1
303_Run#2.            2  :303_Run#2
304_Trip#2.         ./.  :304_Trip#2
305_Gerätedaten#2.  OBI                 ALT QL40-OBI-2G 151105   k.A.                      86.6 mm  :305_Gerätedaten#2
306_Run#3.            3  :306_Run#3
307_Trip#3.         ./.  :307_Trip#3
308_Gerätedaten#3.  GR / FEL            LogIn GaFEL 1125004      05.11.2015 / 22.10.2015   157 / 797 mm  :308_Gerätedaten#3
309_Run#4.               :309_Run#4
310_Trip#4.              :310_Trip#4
311_Gerätedaten#4.       :311_Gerätedaten#4
312_Run#5.               :312_Run#5
313_Trip#5.              :313_Trip#5
314_Gerätedaten#5.       :314_Gerätedaten#5
315_Run#6.               :315_Run#6
316_Trip#6.              :316_Trip#6
317_Gerätedaten#6.       :317_Gerätedaten#6
318_Run#7.               :318_Run#7
319_Trip#7.              :319_Trip#7
320_Gerätedaten#7.       :320_Gerätedaten#7
321_Run#8.               :321_Run#8
322_Trip#8.              :322_Trip#8
323_Gerätedaten#8.       :323_Gerätedaten#8
324_Run#9.               :324_Run#9
325_Trip#9.              :325_Trip#9
326_Gerätedaten#9.       :326_Gerätedaten#9
327_Run#10.              :327_Run#10
328_Trip#10.             :328_Trip#10
329_Gerätedaten#10.      :329_Gerätedaten#10
330_Gerätedaten#0.  GERÄT               SONDEN NR.               LETZTE KALIBRIERUNG       ABSTAND TIEFSTER MESSPUNKT  :330_Gerätedaten#0
#------------------------------------------------------------
~OTHER
#------------------------------------------------------------
~A   MD      SGRRAW         SGR  SGRRAW_COR     SGR_COR       232TH        238U         40K       GRRAW          GR   GRRAW_COR      GR_COR
# ...
     57.4630     4.08265     6.48137     5.30150     8.41637    0.519098    0.462567   0.0169475    -999.250    -999.250    -999.250    -999.250
     57.5140     4.91072     6.68220     6.37680     8.67716    0.564420    0.423895   0.0212091    -999.250    -999.250    -999.250    -999.250
     57.5650     6.49454     6.89268     8.43350     8.95048    0.611407    0.391189   0.0244598    -999.250    -999.250    -999.250    -999.250
     57.6160     5.62706     7.07297     7.30700     9.18459    0.655797    0.375728   0.0252428    -999.250    -999.250    -999.250    -999.250
     57.6670     7.62635     7.30215     9.90320     9.48219    0.669663    0.393578   0.0227155    -999.250    -999.250    -999.250    -999.250
     57.7180     11.3111     7.42328     14.6879     9.63948    0.609167    0.459801   0.0162339    -999.250    -999.250    -999.250    -999.250
     57.7690     9.73246     7.44549     12.6381     9.66833    0.452497    0.570208  0.00629336    -999.250    -999.250    -999.250    -999.250
     57.8200     6.13076     7.20874     7.96110     9.36090    0.261754    0.669742    0.000000    -999.250    -999.250    -999.250    -999.250
     57.8710     5.37805     6.85782     6.98370     8.90521    0.102537    0.719524    0.000000    -999.250    -999.250    -999.250    -999.250
     57.9220     5.35332     6.55925     6.95150     8.51749  0.00762140    0.720535    0.000000    -999.250    -999.250    -999.250    -999.250
     57.9730     5.31774     6.46987     6.90530     8.40143    0.000000    0.682527    0.000000    -999.250    -999.250    -999.250    -999.250
     58.0240     8.93984     6.45447     11.6088     8.38142  0.00128840    0.660802    0.000000    -999.250    -999.250    -999.250    -999.250
     58.0750     6.05950     6.48254     7.86850     8.41787   0.0301982    0.649167    0.000000    -999.250    -999.250    -999.250    -999.250
     58.1260     3.24059     6.68022     4.20810     8.67458   0.0184143    0.692527    0.000000    -999.250    -999.250    -999.250    -999.250
     58.1770     6.14606     7.01397     7.98090     9.10796    0.000000    0.745421  0.00324083    -999.250    -999.250    -999.250    -999.250
     58.2280     12.6109     7.37962     16.3759     9.58279  0.00387512    0.765183  0.00644202    -999.250    -999.250    -999.250    -999.250
     58.2790     5.67182     7.38543     7.36510     9.59032   0.0218335    0.767363  0.00868186    -999.250    -999.250    -999.250    -999.250
     58.3300     8.13383     7.41534     10.5622     9.62916   0.0540535    0.754103   0.0107730    -999.250    -999.250    -999.250    -999.250
     58.3810     8.49259     7.46757     11.0280     9.69699    0.118801    0.700921   0.0146680    -999.250    -999.250    -999.250    -999.250
     58.4320     5.24870     7.56243     6.81570     9.82017    0.201645    0.630446   0.0228047    -999.250    -999.250    -999.250    -999.250
     58.4830     8.06279     7.65783     10.4699     9.94405    0.273072    0.568166   0.0348265    -999.250    -999.250    -999.250    -999.250
     58.5340     6.91376     7.72445     8.97780     10.0306    0.330783    0.537433   0.0477106    -999.250    -999.250    -999.250    -999.250
     58.5850     6.89383     7.98450     8.95200     10.3683    0.381804    0.522051   0.0569871    -999.250    -999.250    -999.250    -999.250
     58.6360     8.13159     8.24778     10.5593     10.7101    0.424043    0.525698   0.0620515    -999.250    -999.250    -999.250    -999.250
     58.6870     12.4599     8.42229     16.1798     10.9367    0.427879    0.535322   0.0620317    -999.250    -999.250    -999.250    -999.250
     58.7380     7.27638     8.48141     9.44870     11.0135    0.411903    0.553776   0.0601982    -999.250    -999.250    -999.250    -999.250
     58.7890     8.94352     8.44023     11.6136     10.9600    0.401437    0.552012   0.0570366    -999.250    -999.250    -999.250    -999.250
     58.8400     8.18000     8.35271     10.6221     10.8464    0.427314    0.520783   0.0538454    -999.250    -999.250    -999.250    -999.250
     58.8910     8.23243     8.22827     10.6902     10.6848    0.493290    0.469276   0.0510307    -999.250    -999.250    -999.250    -999.250
     58.9420     4.93327     8.07632     6.40610     10.4875    0.568622    0.420575   0.0468880    -999.250    -999.250    -999.250    -999.250
     58.9930     12.2734     8.03448     15.9376     10.4332    0.614559    0.407373   0.0393260    -999.250    -999.250    -999.250    -999.250
     59.0440     5.69290     7.83671     7.39250     10.1763    0.616105    0.432666   0.0288900    -999.250    -999.250    -999.250    -999.250
     59.0950     8.15629     7.75900     10.5913     10.0754    0.592309    0.478454   0.0188206    -999.250    -999.250    -999.250    -999.250
     59.1460     8.11707     7.72255     10.5404     10.0281    0.541922    0.526442   0.0110010    -999.250    -999.250    -999.250    -999.250
     59.1970     8.58069     7.69890     11.1424     9.99737    0.462834    0.592834  0.00782953    -999.250    -999.250    -999.250    -999.250
     59.2480     5.69917     7.56226     7.40060     9.81994    0.309038    0.680882   0.0115956    -999.250    -999.250    -999.250    -999.250
     59.2990     6.47321     7.41640     8.40580     9.63055    0.136065    0.758553   0.0219425    -999.250    -999.250    -999.250    -999.250
     59.3500     8.43142     7.42197     10.9486     9.63778   0.0475520    0.764479   0.0350148    -999.250    -999.250    -999.250    -999.250
     59.4010     8.85457     7.41033     11.4981     9.62267   0.0463627    0.717968   0.0459762    -999.250    -999.250    -999.250    -999.250
     59.4520     8.51473     7.32425     11.0568     9.51090   0.0937462    0.652418   0.0515758    -999.250    -999.250    -999.250    -999.250
     59.5030     4.86156     7.19128     6.31300     9.33823    0.136898    0.604123   0.0507433    -999.250    -999.250    -999.250    -999.250
     59.5540     6.13331     7.21629     7.96440     9.37070    0.161883    0.595936   0.0470565    -999.250    -999.250    -999.250    -999.250
     59.6050     6.12398     7.30779     7.95230     9.48952    0.186819    0.591050   0.0432309    -999.250    -999.250    -999.250    -999.250
     59.6560     10.5507     7.40990     13.7006     9.62212    0.223558    0.573320   0.0415163    -999.250    -999.250    -999.250    -999.250
     59.7070     6.87307     7.35456     8.92500     9.55025    0.239603    0.565342   0.0408325    -999.250    -999.250    -999.250    -999.250
     59.7580     7.22398     7.32390     9.38070     9.51045    0.187046    0.599791   0.0377998    -999.250    -999.250    -999.250    -999.250
     59.8090     6.83008     7.24238     8.86920     9.40459   0.0697026    0.685560   0.0315758    -999.250    -999.250    -999.250    -999.250
     59.8600     8.96079     7.08628     11.6360     9.20188    0.000000    0.742646   0.0249554    -999.250    -999.250    -999.250    -999.250
     59.9110     6.15716     6.78355     7.99540     8.80878    0.000000    0.734132   0.0202775    -999.250    -999.250    -999.250    -999.250
     59.9620     7.00141     6.44345     9.09170     8.36715    0.000000    0.708336   0.0183549    -999.250    -999.250    -999.250    -999.250
     60.0130     5.78042     6.13224     7.50620     7.96303    0.000000    0.670832   0.0200099    -999.250    -999.250    -999.250    -999.250
     60.0640     4.10193     5.92743     5.32650     7.69707    0.000000    0.622111   0.0244598    -999.250    -999.250    -999.250    -999.250
     60.1150     6.11369     5.79657     7.93910     7.52715    0.000000    0.569805   0.0314663    -999.250    -999.250    -999.250    -999.250
     60.1660     6.50976     5.63860     8.45320     7.32201    0.000000    0.534965   0.0359861    -999.250    -999.250    -999.250    -999.250
     60.2170     4.84495     5.54912     6.29140     7.20580    0.000000    0.530515   0.0330723    -999.250    -999.250    -999.250    -999.250
     60.2680     4.49218     5.54273     5.83330     7.19750    0.000000    0.572108   0.0239154    -999.250    -999.250    -999.250    -999.250
