#------------------------------------------------------------
~VERSION INFORMATION
VERS.               2.0  :CWLS LOG ASCII STANDARD - VERSION 2.0
WRAP.                NO  :ONE LINE PER DEPTH STEP
#------------------------------------------------------------
~WELL INFORMATION
STRT.M         0.343000  :FIRST INDEX VALUE
STOP.M          88.9300  :LAST INDEX VALUE
STEP.M        0.0510000  :STEP
NULL.           -999.25  :NULL VALUE
COMP.                    :COMPANY
WELL.                    :WELL
FLD.                     :FIELD
LOC.                     :LOCATION
SRVC.                    :
CTRY. Germany            :COUNTRY
STAT.                    :STATE
CNTY.                    :
DATE.                    :DATE
API.                     :
#------------------------------------------------------------
~CURVE INFORMATION
MD                       :DEPTH
SGRRAW.API               :SGRRaw
SGR.API                  :SGR
SGRRAW_COR.API           :SGRRAW_COR
SGR_COR.API              :SGR_COR
232TH.PPM                :232TH
238U.PPM                 :238U
40K.%                    :40K
GRRAW.API                :GRRaw
GR.API                   :GR
GRRAW_COR.API            :GRRAW_COR
GR_COR.API               :GR_COR
#------------------------------------------------------------
~PARAMETER INFORMATION
001_Bohrungsnummer. 314532  :001_Bohrungsnummer
002_Firma. Geologischer Dienst NRW_Fachbereich 34_Geophysik, Landeserdbebendienst_34.23 Bohrlochgeophysik_De-Greiff-Straße 195_47803 Krefeld  :002_Firma
003_GR.                  :003_GR
004_GR_FEL.         yes  :004_GR_FEL
005_GR_SAL_TEMP.         :005_GR_SAL_TEMP
006_SGR.            yes  :006_SGR
007_CAL3.                :007_CAL3
008_ORI.                 :008_ORI
009_SUSZ.                :009_SUSZ
010_OBI.            yes  :010_OBI
011_STpF.                :011_STpF
012_SAMP.                :012_SAMP
013_Log_Feld.            :013_Log_Feld
014_Log_End.        yes  :014_Log_End
015_Teufenskala.    200  :015_Teufenskala
016_Bohrung. IGL Hastenrath_Albertstraße 57_52249 Eschweiler  :016_Bohrung
017_TK25. 5203 Stolberg (Rheinland)  :017_TK25
018_Land.   Deutschland  :018_Land
019_Koordinaten#1. 32U 307542,00 +/- 5 m  :019_Koordinaten#1
020_Koordinaten#2. UTM 5629294,00 +/- 5 m  :020_Koordinaten#2
021_Koordinaten#3. (UTM 32.Zone ETRS89)  :021_Koordinaten#3
022_Hoehe.       233,00  :022_Hoehe
023_DGPS_Ja.             :023_DGPS_Ja
024_DGPS_Nein.      yes  :024_DGPS_Nein
025_Auftraggeber. Heß, O. (GD NRW)  :025_Auftraggeber
026_Bohrfirma. H. Anger's Söhne_Bohr- und Brunnenbaugesellschaft mbH_Gutenbergstr. 33_37235 Hessisch Lichtenau  :026_Bohrfirma
027_Bohrmeister.   k.A.  :027_Bohrmeister
028_Bohrungsart. Geologische Untersuchung  :028_Bohrungsart
029_Bohrungsverfahren. Kernbohrung  :029_Bohrungsverfahren
030_TeufenBez.      GOK  :030_TeufenBez
031_Messbez.      -1,73  :031_Messbez
032_Bohrbez.        GOK  :032_Bohrbez
033_Bearbeiter.          :033_Bearbeiter
034_Deklination.   1,77  :034_Deklination
100_Stand_ID.       156  :100_Stand_ID
101_Stand_OD.       178  :101_Stand_OD
102_Stand_RL.       1,5  :102_Stand_RL
103_Stand_MA.     Stahl  :103_Stand_MA
104_Stand_vb. -1,02 / 6,12  :104_Stand_vb
105_Stand_MNr.    1 - 3  :105_Stand_MNr
106_StandM_ID.      156  :106_StandM_ID
107_StandM_OD.      178  :107_StandM_OD
108_StandM_RL.     0,11  :108_StandM_RL
109_StandM_MA.    Stahl  :109_StandM_MA
110_StandM_vb. -1,02 / 6,12  :110_StandM_vb
111_StandM_MNr.   1 - 3  :111_StandM_MNr
112_Gest_ID.        126  :112_Gest_ID
113_Gest_OD.        140  :113_Gest_OD
114_Gest_RL.       3,00  :114_Gest_RL
115_Gest_MA.      Stahl  :115_Gest_MA
116_Gest_vb. -1,73 / 90,00  :116_Gest_vb
117_Gest_MNr.         1  :117_Gest_MNr
118_GestM_ID.       126  :118_GestM_ID
119_GestM_OD.       140  :119_GestM_OD
120_GestM_RL.     0,065  :120_GestM_RL
121_GestM_MA.     Stahl  :121_GestM_MA
122_GestM_vb. -1,73 / 90,00  :122_GestM_vb
123_GestM_MNr.        1  :123_GestM_MNr
124_Verr_ID.        ./.  :124_Verr_ID
125_Verr_OD.        ./.  :125_Verr_OD
126_Verr_RL.        ./.  :126_Verr_RL
127_Verr_MA.        ./.  :127_Verr_MA
128_Verr_vb.        ./.  :128_Verr_vb
129_Verr_MNr.       ./.  :129_Verr_MNr
130_oBL_ID.         146  :130_oBL_ID
134_oBL_vb. 6,12 / 90,00  :134_oBL_vb
135_oBL_MNr.      2 - 3  :135_oBL_MNr
136_MeißelA.        PCD  :136_MeißelA
137_MeißelD.        146  :137_MeißelD
138_Sp_Ja.          yes  :138_Sp_Ja
139_Sp_Nein.             :139_Sp_Nein
140_Sp_W.           yes  :140_Sp_W
141_Sp_B.                :141_Sp_B
142_Sp_A.           yes  :142_Sp_A
143_Sp_T.                :143_Sp_T
144_Sp_GW.               :144_Sp_GW
145_Sp_S.                :145_Sp_S
146_SpStop.        k.A.  :146_SpStop
147_SpProbe_Ja.          :147_SpProbe_Ja
148_SpProbe_Nein.   yes  :148_SpProbe_Nein
149_SpProbe_S.           :149_SpProbe_S
150_Dichte.         ./.  :150_Dichte
151_sonstiger_Zusatz. sonstiges  :151_sonstiger_Zusatz
152_sonstige_SPprobe. sonstiges  :152_sonstige_SPprobe
154_VerrM_ID.       ./.  :154_VerrM_ID
155_VerrM_OD.       ./.  :155_VerrM_OD
156_VerrM_RL.       ./.  :156_VerrM_RL
157_VerrM_MA.       ./.  :157_VerrM_MA
158_VerrM_vb.       ./.  :158_VerrM_vb
159_VerrM_MNr.      ./.  :159_VerrM_MNr
200_MessNr#1. 1 aufwärts  :200_MessNr#1
201_Datum#1. 27 Apr 2018  :201_Datum#1
202_Sonde#1.        SGR  :202_Sonde#1
203_RohrÜber#1.   -1,73  :203_RohrÜber#1
204_FlüssigSP#1.  51,04  :204_FlüssigSP#1
205_FlüssigZP#1.   9_45  :205_FlüssigZP#1
206_ErrTiefe#1.   90,00  :206_ErrTiefe#1
207_TiefsterMP#1. 88,93  :207_TiefsterMP#1
208_HöchsterMP#1.  0,34  :208_HöchsterMP#1
209_Messbeginn#1.  9_32  :209_Messbeginn#1
210_MessNr#2. 2 aufwärts  :210_MessNr#2
211_Datum#2. 27 Apr 2018  :211_Datum#2
212_Sonde#2.        OBI  :212_Sonde#2
213_RohrÜber#2.   -1,02  :213_RohrÜber#2
214_FlüssigSP#2.   k.A.  :214_FlüssigSP#2
215_FlüssigZP#2.   k.A.  :215_FlüssigZP#2
216_ErrTiefe#2.   12,50  :216_ErrTiefe#2
217_TiefsterMP#2. 12,43  :217_TiefsterMP#2
218_HöchsterMP#2.  5,44  :218_HöchsterMP#2
219_Messbeginn#2. 12_10  :219_Messbeginn#2
220_MessNr#3. 3 aufwärts  :220_MessNr#3
221_Datum#3. 27 Apr 2018  :221_Datum#3
222_Sonde#3.   GR / FEL  :222_Sonde#3
223_RohrÜber#3.   -1,02  :223_RohrÜber#3
224_FlüssigSP#3.   k.A.  :224_FlüssigSP#3
225_FlüssigZP#3.   k.A.  :225_FlüssigZP#3
226_ErrTiefe#3.   39,06  :226_ErrTiefe#3
227_TiefsterMP#3. 37,99  :227_TiefsterMP#3
228_HöchsterMP#3.  2,80  :228_HöchsterMP#3
229_Messbeginn#3. 12_28  :229_Messbeginn#3
230_MessNr#4.            :230_MessNr#4
231_Datum#4.             :231_Datum#4
232_Sonde#4.             :232_Sonde#4
233_RohrÜber#4.          :233_RohrÜber#4
234_FlüssigSP#4.         :234_FlüssigSP#4
235_FlüssigZP#4.         :235_FlüssigZP#4
236_ErrTiefe#4.          :236_ErrTiefe#4
237_TiefsterMP#4.        :237_TiefsterMP#4
238_HöchsterMP#4.        :238_HöchsterMP#4
239_Messbeginn#4.        :239_Messbeginn#4
240_MessNr#5.            :240_MessNr#5
241_Datum#5.             :241_Datum#5
242_Sonde#5.             :242_Sonde#5
243_RohrÜber#5.          :243_RohrÜber#5
244_FlüssigSP#5.         :244_FlüssigSP#5
245_FlüssigZP#5.         :245_FlüssigZP#5
246_ErrTiefe#5.          :246_ErrTiefe#5
247_TiefsterMP#5.        :247_TiefsterMP#5
248_HöchsterMP#5.        :248_HöchsterMP#5
249_Messbeginn#5.        :249_Messbeginn#5
250_TeufeBM.      90,00  :250_TeufeBM
251_Messwagen. KR-GD 600  :251_Messwagen
252_Messtrupp. Orth / Helbing  :252_Messtrupp
253_Bemerkungen. OBI-Sonde ist bei 12,50 m aufgesetzt._GRFEL-Sonde ist überhalb der Wassersäule bei 39,06 m aufgesetzt, daher keine Wiederstandswerte._Die Stückelung der Schutzverrohrung ist unklar (Überstand 1,02 m gemessen, Ende Schneidschuh 6,12 m ergibt sich durch_OBI)  :253_Bemerkungen
254_Korrekturen. GR_COR / SGR_COR_ Von Bohrlocheinflüssen korrigiertes GR-Log nach (Lehmann, 2010)  :254_Korrekturen
259_Anmerkung. Interpretationen und Beurteilungen der von uns durchgeführten Messungen werden von unserem Personal nach bestem Wissen und Gewissen durchgeführt,_ohne jedoch für die Genauigkeit bzw. Richtigkeit zu garantieren. Ebenso lehnen wir jegliche Haftung oder Verantwortung für irgendwelche Verluste, Kosten oder Schäden ab, die unserem Auftraggeber dadurch entstehen können.  :259_Anmerkung
300_Run#1.            1  :300_Run#1
301_Trip#1.         ./.  :301_Trip#1
302_Gerätedaten#1.  SGR                 LogIn 2901               k.A.                      191 mm  :302_Gerätedaten#1
303_Run#2.            2  :303_Run#2
304_Trip#2.         ./.  :304_Trip#2
305_Gerätedaten#2.  OBI                 ALT QL40-OBI-2G 151105   k.A.                      86.6 mm  :305_Gerätedaten#2
306_Run#3.            3  :306_Run#3
307_Trip#3.         ./.  :307_Trip#3
308_Gerätedaten#3.  GR / FEL            LogIn GaFEL 1125004      05.11.2015 / 22.10.2015   157 / 797 mm  :308_Gerätedaten#3
309_Run#4.               :309_Run#4
310_Trip#4.              :310_Trip#4
311_Gerätedaten#4.       :311_Gerätedaten#4
312_Run#5.               :312_Run#5
313_Trip#5.              :313_Trip#5
314_Gerätedaten#5.       :314_Gerätedaten#5
315_Run#6.               :315_Run#6
316_Trip#6.              :316_Trip#6
317_Gerätedaten#6.       :317_Gerätedaten#6
318_Run#7.               :318_Run#7
319_Trip#7.              :319_Trip#7
320_Gerätedaten#7.       :320_Gerätedaten#7
321_Run#8.               :321_Run#8
322_Trip#8.              :322_Trip#8
323_Gerätedaten#8.       :323_Gerätedaten#8
324_Run#9.               :324_Run#9
325_Trip#9.              :325_Trip#9
326_Gerätedaten#9.       :326_Gerätedaten#9
327_Run#10.              :327_Run#10
328_Trip#10.             :328_Trip#10
329_Gerätedaten#10.      :329_Gerätedaten#10
330_Gerätedaten#0.  GERÄT               SONDEN NR.               LETZTE KALIBRIERUNG       ABSTAND TIEFSTER MESSPUNKT  :330_Gerätedaten#0
#------------------------------------------------------------
~OTHER
#------------------------------------------------------------
~A   MD      SGRRAW         SGR  SGRRAW_COR     SGR_COR       232TH        238U         40K       GRRAW          GR   GRRAW_COR      GR_COR
# ...
     34.6150     9.81464     10.7222     11.2562     12.2970    0.917165    0.456481   0.0764816     10.5135     13.6197     9.74090     12.6189
     34.6660     10.6017     10.5349     12.1589     12.0822    0.978612    0.366402   0.0850743     19.7901     14.2116     18.3358     13.1673
     34.7170     10.5031     10.4033     12.0458     11.9314     1.05742    0.266521   0.0901684     20.1836     14.4474     18.7005     13.3858
     34.7680     10.3035     10.3204     11.8168     11.8363     1.10199    0.221457   0.0969177     17.5413     14.5630     16.2523     13.4929
     34.8190     10.0213     10.2605     11.4933     11.7675    0.934628    0.342190   0.0962437     12.1440     14.3413     11.2516     13.2874
     34.8700     10.1302     10.1248     11.6181     11.6120    0.942477    0.373667   0.0923092     13.1560     13.8416     12.1891     12.8244
     34.9210     8.01857     10.1024     9.19630     11.5863    0.989345    0.386472   0.0853518     8.32093     13.2404     7.70945     12.2674
     34.9720     12.6104     10.2559     14.4627     11.7623     1.02488    0.402527   0.0778989     11.0195     12.9343     10.2098     11.9838
     35.0230     10.9151     10.3612     12.5183     11.8830     1.04654    0.415788   0.0723984     19.9024     12.9967     18.4399     12.0417
     35.0740     8.73165     10.4161     10.0141     11.9460     1.04504    0.420575   0.0678691     12.5945     12.8921     11.6690     11.9447
     35.1250     9.12177     10.5019     10.4616     12.0444     1.03201    0.438117   0.0630723     7.25274     12.9467     6.71980     11.9953
     35.1760     11.1698     10.6019     12.8104     12.1591    0.992933    0.477155   0.0563924     12.5936     13.1435     11.6682     12.1776
     35.2270     12.5569     10.6523     14.4012     12.2169    0.942814    0.533320   0.0510307     16.7541     13.2622     15.5230     12.2876
     35.2780     12.8805     10.5633     14.7724     12.1149    0.859950    0.572140   0.0487710     15.5172     13.0638     14.3769     12.1038
     35.3290     9.51503     10.3972     10.9126     11.9243    0.782111    0.596481   0.0517244     13.6057     12.5437     12.6059     11.6219
     35.3800     8.27162     10.1897     9.48650     11.6863    0.727928    0.606749   0.0580971     13.3808     12.2204     12.3975     11.3224
     35.4310     8.73534     9.99622     10.0184     11.4644    0.706670    0.607304   0.0650247     7.47756     11.9986     6.92809     11.1169
     35.4820     10.4212     9.75417     11.9519     11.1868    0.703042    0.599851   0.0688404     9.22036     12.0205     8.54282     11.1372
     35.5330     12.0801     9.50686     13.8544     10.9032    0.707185    0.591883   0.0676511     13.7744     12.1907     12.7622     11.2949
     35.5840     10.3715     9.29588     11.8948     10.6612    0.721040    0.584896   0.0615064     8.43328     12.3531     7.81356     11.4454
     35.6350     6.62471     9.23856     7.59770     10.5955    0.750188    0.589524   0.0522596     14.3927     13.0746     13.3351     12.1138
     35.6860     8.31820     9.42945     9.54000     10.8144    0.783934    0.626025   0.0418434     17.8223     13.8243     16.5126     12.8084
     35.7370     6.59974     9.72577     7.56910     11.1543    0.792606    0.691585   0.0310109     16.4730     14.3334     15.2624     13.2801
     35.7880     9.48316     10.2446     10.8760     11.7493    0.795034    0.783468   0.0223984     11.1882     14.5068     10.3661     13.4407
     35.8390     12.9114     10.9773     14.8078     12.5896    0.799494    0.880535   0.0179286     10.5135     14.8036     9.74090     13.7157
     35.8900     13.3940     11.7126     15.3613     13.4329    0.785143    0.965678   0.0172349     21.4767     15.3095     19.8985     14.1845
     35.9410     12.6699     12.3845     14.5309     14.2035    0.753637     1.05971   0.0173439     16.1920     15.4423     15.0021     14.3075
     35.9920     12.1607     12.8383     13.9468     14.7240    0.697185     1.14761   0.0146680     13.6057     15.5220     12.6059     14.3813
     36.0430     12.4738     13.1035     14.3059     15.0281    0.629068     1.23502  0.00979187     13.3808     15.7188     12.3975     14.5636
     36.0940     16.2433     13.1360     18.6292     15.0654    0.558117     1.30800  0.00723488     17.5974     16.0717     16.3042     14.8906
     36.1450     13.8380     12.9674     15.8705     14.8720    0.512428     1.31418   0.0123588     14.7864     16.2092     13.6998     15.0180
     36.1960     14.1350     12.7307     16.2111     14.6006    0.542487     1.18242   0.0287611     21.0832     16.4559     19.5339     15.2466
     36.2470     10.8626     12.5064     12.4581     14.3434    0.759385    0.892081   0.0614866     16.0796     16.4637     14.8980     15.2538
     36.2980     9.21358     12.4348     10.5669     14.2612     1.03151    0.569048   0.0987809     13.6057     16.4137     12.6059     15.2075
     36.3490     9.96921     12.5846     11.4335     14.4330     1.26160    0.316541    0.128434     15.9108     16.5480     14.7415     15.3319
     36.4000     15.7646     12.8844     18.0801     14.7769     1.44948    0.181863    0.142190     16.2481     16.7073     15.0541     15.4795
     36.4510     12.3143     12.9678     14.1231     14.8725     1.51902    0.175996    0.136729     22.9947     16.9603     21.3049     15.7139
     36.5020     15.3239     13.1664     17.5747     15.1003     1.53551    0.240614    0.123419     12.0879     16.6870     11.1996     15.4607
     36.5530     14.5487     13.2159     16.6855     15.1570     1.49169    0.318642    0.105619     13.8868     16.6230     12.8663     15.4014
     36.6040     14.2371     13.0919     16.3283     15.0149     1.45334    0.371318   0.0888998     20.2399     16.6432     18.7525     15.4202
     36.6550     12.8678     12.7661     14.7579     14.6412     1.49221    0.334410   0.0752428     19.3404     16.1779     17.9191     14.9890
     36.7060     7.49165     12.4681     8.59200     14.2994     1.96536   0.0105847   0.0735282     18.2722     15.4595     16.9294     14.3234
     36.7570     14.9412     12.6463     17.1358     14.5037     2.01980    0.000000   0.0681367     12.2564     14.5052     11.3558     13.4393
     36.8080     11.1417     12.6628     12.7782     14.5228     1.75275    0.195956   0.0674826     10.6260     13.9212     9.84510     12.8982
     36.8590     11.9938     12.7417     13.7555     14.6132     1.40188    0.469901   0.0686818     14.7301     13.6010     13.6477     12.6015
     36.9100     11.9905     12.8846     13.7516     14.7771    0.982685    0.764568   0.0727750     9.38905     13.1450     8.69906     12.1790
     36.9610     16.7710     13.0581     19.2343     14.9761    0.669008    0.974985   0.0801783     13.6619     13.1357     12.6579     12.1704
     37.0120     16.3587     12.9574     18.7614     14.8606    0.460783     1.06417   0.0860455     11.8066     13.1654     10.9391     12.1979
     37.0630     11.7514     12.4545     13.4774     14.2838    0.385173     1.05033   0.0887214     14.8426     13.4496     13.7519     12.4613
     37.1140     9.20314     11.9788     10.5549     13.7382    0.436016    0.960663   0.0845193     18.6656     13.3934     17.2939     12.4092
     37.1650     11.7430     11.5429     13.4678     13.2383    0.590812    0.846194   0.0716650     10.6822     12.9358     9.89724     11.9852
     37.2160     10.8457     10.9941     12.4387     12.6089    0.796313    0.725569   0.0506838     14.6178     12.6890     13.5436     11.7566
     37.2670     10.8030     10.4757     12.3897     12.0144     1.00496    0.617205   0.0288503     9.38915     12.0784     8.69915     11.1908
     37.3180     10.7456     10.1248     12.3239     11.6120     1.18087    0.512368   0.0138553     14.5052     11.5785     13.4393     10.7277
     37.3690     9.54041     10.0145     10.9417     11.4854     1.32375    0.413667   0.0100793     5.17242     11.0070     4.79236     10.1981
     37.4200     8.69738     10.0484     9.97480     11.5243     1.40406    0.333766   0.0162636     12.2563     11.0085     11.3556     10.1995
