#------------------------------------------------------------
~VERSION INFORMATION
VERS.               2.0  :CWLS LOG ASCII STANDARD - VERSION 2.0
WRAP.                NO  :ONE LINE PER DEPTH STEP
#------------------------------------------------------------
~WELL INFORMATION
STRT.M         0.343000  :FIRST INDEX VALUE
STOP.M          88.9300  :LAST INDEX VALUE
STEP.M        0.0510000  :STEP
NULL.           -999.25  :NULL VALUE
COMP.                    :COMPANY
WELL.                    :WELL
FLD.                     :FIELD
LOC.                     :LOCATION
SRVC.                    :
CTRY. Germany            :COUNTRY
STAT.                    :STATE
CNTY.                    :
DATE.                    :DATE
API.                     :
#------------------------------------------------------------
~CURVE INFORMATION
MD                       :DEPTH
SGRRAW.API               :SGRRaw
SGR.API                  :SGR
SGRRAW_COR.API           :SGRRAW_COR
SGR_COR.API              :SGR_COR
232TH.PPM                :232TH
238U.PPM                 :238U
40K.%                    :40K
GRRAW.API                :GRRaw
GR.API                   :GR
GRRAW_COR.API            :GRRAW_COR
GR_COR.API               :GR_COR
#------------------------------------------------------------
~PARAMETER INFORMATION
001_Bohrungsnummer. 314532  :001_Bohrungsnummer
002_Firma. Geologischer Dienst NRW_Fachbereich 34_Geophysik, Landeserdbebendienst_34.23 Bohrlochgeophysik_De-Greiff-Straße 195_47803 Krefeld  :002_Firma
003_GR.                  :003_GR
004_GR_FEL.         yes  :004_GR_FEL
005_GR_SAL_TEMP.         :005_GR_SAL_TEMP
006_SGR.            yes  :006_SGR
007_CAL3.                :007_CAL3
008_ORI.                 :008_ORI
009_SUSZ.                :009_SUSZ
010_OBI.            yes  :010_OBI
011_STpF.                :011_STpF
012_SAMP.                :012_SAMP
013_Log_Feld.            :013_Log_Feld
014_Log_End.        yes  :014_Log_End
015_Teufenskala.    200  :015_Teufenskala
016_Bohrung. IGL Hastenrath_Albertstraße 57_52249 Eschweiler  :016_Bohrung
017_TK25. 5203 Stolberg (Rheinland)  :017_TK25
018_Land.   Deutschland  :018_Land
019_Koordinaten#1. 32U 307542,00 +/- 5 m  :019_Koordinaten#1
020_Koordinaten#2. UTM 5629294,00 +/- 5 m  :020_Koordinaten#2
021_Koordinaten#3. (UTM 32.Zone ETRS89)  :021_Koordinaten#3
022_Hoehe.       233,00  :022_Hoehe
023_DGPS_Ja.             :023_DGPS_Ja
024_DGPS_Nein.      yes  :024_DGPS_Nein
025_Auftraggeber. Heß, O. (GD NRW)  :025_Auftraggeber
026_Bohrfirma. H. Anger's Söhne_Bohr- und Brunnenbaugesellschaft mbH_Gutenbergstr. 33_37235 Hessisch Lichtenau  :026_Bohrfirma
027_Bohrmeister.   k.A.  :027_Bohrmeister
028_Bohrungsart. Geologische Untersuchung  :028_Bohrungsart
029_Bohrungsverfahren. Kernbohrung  :029_Bohrungsverfahren
030_TeufenBez.      GOK  :030_TeufenBez
031_Messbez.      -1,73  :031_Messbez
032_Bohrbez.        GOK  :032_Bohrbez
033_Bearbeiter.          :033_Bearbeiter
034_Deklination.   1,77  :034_Deklination
100_Stand_ID.       156  :100_Stand_ID
101_Stand_OD.       178  :101_Stand_OD
102_Stand_RL.       1,5  :102_Stand_RL
103_Stand_MA.     Stahl  :103_Stand_MA
104_Stand_vb. -1,02 / 6,12  :104_Stand_vb
105_Stand_MNr.    1 - 3  :105_Stand_MNr
106_StandM_ID.      156  :106_StandM_ID
107_StandM_OD.      178  :107_StandM_OD
108_StandM_RL.     0,11  :108_StandM_RL
109_StandM_MA.    Stahl  :109_StandM_MA
110_StandM_vb. -1,02 / 6,12  :110_StandM_vb
111_StandM_MNr.   1 - 3  :111_StandM_MNr
112_Gest_ID.        126  :112_Gest_ID
113_Gest_OD.        140  :113_Gest_OD
114_Gest_RL.       3,00  :114_Gest_RL
115_Gest_MA.      Stahl  :115_Gest_MA
116_Gest_vb. -1,73 / 90,00  :116_Gest_vb
117_Gest_MNr.         1  :117_Gest_MNr
118_GestM_ID.       126  :118_GestM_ID
119_GestM_OD.       140  :119_GestM_OD
120_GestM_RL.     0,065  :120_GestM_RL
121_GestM_MA.     Stahl  :121_GestM_MA
122_GestM_vb. -1,73 / 90,00  :122_GestM_vb
123_GestM_MNr.        1  :123_GestM_MNr
124_Verr_ID.        ./.  :124_Verr_ID
125_Verr_OD.        ./.  :125_Verr_OD
126_Verr_RL.        ./.  :126_Verr_RL
127_Verr_MA.        ./.  :127_Verr_MA
128_Verr_vb.        ./.  :128_Verr_vb
129_Verr_MNr.       ./.  :129_Verr_MNr
130_oBL_ID.         146  :130_oBL_ID
134_oBL_vb. 6,12 / 90,00  :134_oBL_vb
135_oBL_MNr.      2 - 3  :135_oBL_MNr
136_MeißelA.        PCD  :136_MeißelA
137_MeißelD.        146  :137_MeißelD
138_Sp_Ja.          yes  :138_Sp_Ja
139_Sp_Nein.             :139_Sp_Nein
140_Sp_W.           yes  :140_Sp_W
141_Sp_B.                :141_Sp_B
142_Sp_A.           yes  :142_Sp_A
143_Sp_T.                :143_Sp_T
144_Sp_GW.               :144_Sp_GW
145_Sp_S.                :145_Sp_S
146_SpStop.        k.A.  :146_SpStop
147_SpProbe_Ja.          :147_SpProbe_Ja
148_SpProbe_Nein.   yes  :148_SpProbe_Nein
149_SpProbe_S.           :149_SpProbe_S
150_Dichte.         ./.  :150_Dichte
151_sonstiger_Zusatz. sonstiges  :151_sonstiger_Zusatz
152_sonstige_SPprobe. sonstiges  :152_sonstige_SPprobe
154_VerrM_ID.       ./.  :154_VerrM_ID
155_VerrM_OD.       ./.  :155_VerrM_OD
156_VerrM_RL.       ./.  :156_VerrM_RL
157_VerrM_MA.       ./.  :157_VerrM_MA
158_VerrM_vb.       ./.  :158_VerrM_vb
159_VerrM_MNr.      ./.  :159_VerrM_MNr
200_MessNr#1. 1 aufwärts  :200_MessNr#1
201_Datum#1. 27 Apr 2018  :201_Datum#1
202_Sonde#1.        SGR  :202_Sonde#1
203_RohrÜber#1.   -1,73  :203_RohrÜber#1
204_FlüssigSP#1.  51,04  :204_FlüssigSP#1
205_FlüssigZP#1.   9_45  :205_FlüssigZP#1
206_ErrTiefe#1.   90,00  :206_ErrTiefe#1
207_TiefsterMP#1. 88,93  :207_TiefsterMP#1
208_HöchsterMP#1.  0,34  :208_HöchsterMP#1
209_Messbeginn#1.  9_32  :209_Messbeginn#1
210_MessNr#2. 2 aufwärts  :210_MessNr#2
211_Datum#2. 27 Apr 2018  :211_Datum#2
212_Sonde#2.        OBI  :212_Sonde#2
213_RohrÜber#2.   -1,02  :213_RohrÜber#2
214_FlüssigSP#2.   k.A.  :214_FlüssigSP#2
215_FlüssigZP#2.   k.A.  :215_FlüssigZP#2
216_ErrTiefe#2.   12,50  :216_ErrTiefe#2
217_TiefsterMP#2. 12,43  :217_TiefsterMP#2
218_HöchsterMP#2.  5,44  :218_HöchsterMP#2
219_Messbeginn#2. 12_10  :219_Messbeginn#2
220_MessNr#3. 3 aufwärts  :220_MessNr#3
221_Datum#3. 27 Apr 2018  :221_Datum#3
222_Sonde#3.   GR / FEL  :222_Sonde#3
223_RohrÜber#3.   -1,02  :223_RohrÜber#3
224_FlüssigSP#3.   k.A.  :224_FlüssigSP#3
225_FlüssigZP#3.   k.A.  :225_FlüssigZP#3
226_ErrTiefe#3.   39,06  :226_ErrTiefe#3
227_TiefsterMP#3. 37,99  :227_TiefsterMP#3
228_HöchsterMP#3.  2,80  :228_HöchsterMP#3
229_Messbeginn#3. 12_28  :229_Messbeginn#3
230_MessNr#4.            :230_MessNr#4
231_Datum#4.             :231_Datum#4
232_Sonde#4.             :232_Sonde#4
233_RohrÜber#4.          :233_RohrÜber#4
234_FlüssigSP#4.         :234_FlüssigSP#4
235_FlüssigZP#4.         :235_FlüssigZP#4
236_ErrTiefe#4.          :236_ErrTiefe#4
237_TiefsterMP#4.        :237_TiefsterMP#4
238_HöchsterMP#4.        :238_HöchsterMP#4
239_Messbeginn#4.        :239_Messbeginn#4
240_MessNr#5.            :240_MessNr#5
241_Datum#5.             :241_Datum#5
242_Sonde#5.             :242_Sonde#5
243_RohrÜber#5.          :243_RohrÜber#5
244_FlüssigSP#5.         :244_FlüssigSP#5
245_FlüssigZP#5.         :245_FlüssigZP#5
246_ErrTiefe#5.          :246_ErrTiefe#5
247_TiefsterMP#5.        :247_TiefsterMP#5
248_HöchsterMP#5.        :248_HöchsterMP#5
249_Messbeginn#5.        :249_Messbeginn#5
250_TeufeBM.      90,00  :250_TeufeBM
251_Messwagen. KR-GD 600  :251_Messwagen
252_Messtrupp. Orth / Helbing  :252_Messtrupp
253_Bemerkungen. OBI-Sonde ist bei 12,50 m aufgesetzt._GRFEL-Sonde ist überhalb der Wassersäule bei 39,06 m aufgesetzt, daher keine Wiederstandswerte._Die Stückelung der Schutzverrohrung ist unklar (Überstand 1,02 m gemessen, Ende Schneidschuh 6,12 m ergibt sich durch_OBI)  :253_Bemerkungen
254_Korrekturen. GR_COR / SGR_COR_ Von Bohrlocheinflüssen korrigiertes GR-Log nach (Lehmann, 2010)  :254_Korrekturen
259_Anmerkung. Interpretationen und Beurteilungen der von uns durchgeführten Messungen werden von unserem Personal nach bestem Wissen und Gewissen durchgeführt,_ohne jedoch für die Genauigkeit bzw. Richtigkeit zu garantieren. Ebenso lehnen wir jegliche Haftung oder Verantwortung für irgendwelche Verluste, Kosten oder Schäden ab, die unserem Auftraggeber dadurch entstehen können.  :259_Anmerkung
300_Run#1.            1  :300_Run#1
301_Trip#1.         ./.  :301_Trip#1
302_Gerätedaten#1.  SGR                 LogIn 2901               k.A.                      191 mm  :302_Gerätedaten#1
303_Run#2.            2  :303_Run#2
304_Trip#2.         ./.  :304_Trip#2
305_Gerätedaten#2.  OBI                 ALT QL40-OBI-2G 151105   k.A.                      86.6 mm  :305_Gerätedaten#2
306_Run#3.            3  :306_Run#3
307_Trip#3.         ./.  :307_Trip#3
308_Gerätedaten#3.  GR / FEL            LogIn GaFEL 1125004      05.11.2015 / 22.10.2015   157 / 797 mm  :308_Gerätedaten#3
309_Run#4.               :309_Run#4
310_Trip#4.              :310_Trip#4
311_Gerätedaten#4.       :311_Gerätedaten#4
312_Run#5.               :312_Run#5
313_Trip#5.              :313_Trip#5
314_Gerätedaten#5.       :314_Gerätedaten#5
315_Run#6.               :315_Run#6
316_Trip#6.              :316_Trip#6
317_Gerätedaten#6.       :317_Gerätedaten#6
318_Run#7.               :318_Run#7
319_Trip#7.              :319_Trip#7
320_Gerätedaten#7.       :320_Gerätedaten#7
321_Run#8.               :321_Run#8
322_Trip#8.              :322_Trip#8
323_Gerätedaten#8.       :323_Gerätedaten#8
324_Run#9.               :324_Run#9
325_Trip#9.              :325_Trip#9
326_Gerätedaten#9.       :326_Gerätedaten#9
327_Run#10.              :327_Run#10
328_Trip#10.             :328_Trip#10
329_Gerätedaten#10.      :329_Gerätedaten#10
330_Gerätedaten#0.  GERÄT               SONDEN NR.               LETZTE KALIBRIERUNG       ABSTAND TIEFSTER MESSPUNKT  :330_Gerätedaten#0
#------------------------------------------------------------
~OTHER
#------------------------------------------------------------
~A   MD      SGRRAW         SGR  SGRRAW_COR     SGR_COR       232TH        238U         40K       GRRAW          GR   GRRAW_COR      GR_COR
# ...
     11.7670     7.66698     7.75116     8.79310     8.88965    0.169841    0.687562   0.0406343     9.78264     9.77638     9.06379     9.05797
     11.8180     8.80539     7.68489     10.0987     8.81364    0.311813    0.599217   0.0371159     7.02783     9.38908     6.51141     8.69913
     11.8690     6.38575     7.56703     7.32370     8.67847    0.399643    0.560297   0.0309811     14.2800     9.32191     13.2306     8.63689
     11.9200     9.98178     7.55192     11.4479     8.66113    0.423855    0.548830   0.0267492     9.38915     9.27194     8.69915     8.59059
     11.9710     5.61942     7.46117     6.44480     8.55706    0.405728    0.543379   0.0269475     6.91536     9.26569     6.40720     8.58480
     12.0220     9.21687     7.48245     10.5706     8.58146    0.366571    0.532685   0.0306045     7.53370     9.40624     6.98008     8.71501
     12.0730     8.05950     7.38288     9.24330     8.46726    0.327373    0.537433   0.0353023     8.48950     9.72952     7.86561     9.01453
     12.1240     4.83306     7.29581     5.54290     8.36740    0.297750    0.557631   0.0383746     9.44526     10.2152     8.75119     9.46453
     12.1750     6.81617     7.37716     7.81730     8.46070    0.296670    0.580238   0.0402874     12.9309     10.7665     11.9807     9.97530
     12.2260     6.77205     7.43862     7.76670     8.53119    0.329702    0.588245   0.0428246     10.8509     11.3006     10.0536     10.4702
     12.2770     7.98543     7.78629     9.15830     8.92993    0.375560    0.592319   0.0469970     13.8867     11.7847     12.8663     10.9187
     12.3280     9.62544     8.08259     11.0392     9.26974    0.385302    0.615104   0.0520911     10.9634     11.9112     10.1577     11.0359
     12.3790     8.90188     8.38088     10.2094     9.61185    0.332953    0.676957   0.0578691     13.0435     12.0846     12.0848     11.1965
     12.4300     6.92425     8.73057     7.94130     10.0129    0.243835    0.760693   0.0635282     14.2241     12.1065     13.1789     11.2168
     12.4810     6.53044     9.06583     7.48960     10.3974    0.173102    0.827006   0.0693458     10.9634     11.9425     10.1577     11.0649
     12.5320     13.8657     9.55203     15.9023     10.9550    0.152577    0.845143   0.0769573     10.5135     11.9675     9.74090     11.0880
     12.5830     8.50190     9.64565     9.75060     11.0624    0.186789    0.811704   0.0833795     7.98356     12.0440     7.39688     11.1589
     12.6340     10.1061     9.73341     11.5905     11.1631    0.294321    0.746263   0.0836868     16.0792     12.4282     14.8976     11.5149
     12.6850     11.5945     9.80539     13.2975     11.2456    0.426313    0.681982   0.0739544     12.1442     12.8998     11.2518     11.9519
     12.7360     8.49608     9.75973     9.74400     11.1932    0.508573    0.697898   0.0602279     12.3126     13.7759     11.4078     12.7636
     12.7870     11.6783     9.87026     13.3936     11.3200    0.478543    0.783478   0.0480475     15.7983     15.0331     14.6373     13.9284
     12.8380     6.82636     10.1964     7.82900     11.6940    0.383568    0.919890   0.0453221     12.0317     16.4745     11.1476     15.2639
     12.8890     8.80777     10.9617     10.1015     12.5718    0.324024     1.04533   0.0534291     13.1559     18.1690     12.1891     16.8339
     12.9400     10.0183     12.0687     11.4898     13.8413    0.365480     1.12168   0.0713181     24.3437     19.8479     22.5548     18.3893
     12.9910     10.0524     13.5988     11.5289     15.5961    0.469683     1.15509   0.0969573     25.8058     21.0988     23.9095     19.5484
     13.0420     15.6903     15.3016     17.9949     17.5491    0.601090     1.13771    0.125837     24.1192     21.7782     22.3468     20.1778
     13.0930     24.5882     16.7243     28.1997     19.1807    0.756580     1.06101    0.152478     27.2675     22.0140     25.2638     20.3963
     13.1440     15.5990     17.3515     17.8901     19.9001    0.901000    0.926600    0.169266     22.6576     21.6611     20.9926     20.0693
     13.1950     21.4102     17.6508     24.5550     20.2433     1.00809    0.807294    0.175461     17.7662     20.8849     16.4608     19.3502
     13.2460     25.1643     17.3207     28.8604     19.8647    0.987492    0.735153    0.160644     17.2039     19.8042     15.9397     18.3489
     13.2970     14.7312     16.1293     16.8949     18.4983    0.861209    0.760981    0.132458     18.8905     18.9702     17.5023     17.5762
     13.3480     12.7957     14.6907     14.6751     16.8484    0.687809    0.842656   0.0996134     19.9588     18.1035     18.4921     16.7732
     13.3990     8.86424     13.2253     10.1662     15.1678    0.558117    0.900733   0.0710604     17.5413     17.2508     16.2523     15.9831
     13.4500     12.5625     12.1750     14.4076     13.9633    0.549762    0.866253   0.0519128     18.0472     16.6120     16.7210     15.3913
     13.5010     11.3577     11.1842     13.0259     12.8269    0.423934    0.901228   0.0398315     11.4134     16.0483     10.5747     14.8690
     13.5520     9.30268     10.5293     10.6691     12.0759    0.366154    0.887026   0.0364123     18.9467     15.5844     17.5544     14.4392
     13.6030     10.5103     10.4264     12.0541     11.9578    0.533558    0.746897   0.0401585     10.7949     14.9457     10.0017     13.8474
     13.6540     8.93614     10.6732     10.2487     12.2409    0.713964    0.659653   0.0438652     16.3040     14.7505     15.1059     13.6665
     13.7050     8.08707     11.3554     9.27490     13.0233    0.867086    0.645272   0.0444400     15.5173     14.5943     14.3770     13.5218
     13.7560     11.6640     12.2661     13.3772     14.0678    0.966174    0.717502   0.0421308     16.1357     14.7395     14.9499     13.6564
     13.8070     13.4005     13.3434     15.3688     15.3033     1.01045    0.868632   0.0399802     8.65842     15.1830     8.02214     14.0673
     13.8580     13.3091     14.5202     15.2639     16.6529    0.987343     1.01950   0.0411397     14.3927     16.0123     13.3351     14.8356
     13.9090     18.8832     15.6632     21.6567     17.9638    0.953409     1.12746   0.0495837     18.6656     17.2164     17.2939     15.9512
     13.9600     20.7481     16.5626     23.7955     18.9953    0.924202     1.16150   0.0641129     14.0556     18.2299     13.0227     16.8903
     14.0110     15.5380     17.0171     17.8202     19.5165    0.912794     1.13417   0.0825966     24.3439     19.4699     22.5546     18.0391
     14.0620     16.7626     17.1322     19.2247     19.6486    0.938047     1.03689    0.104539     24.9625     20.4632     23.1282     18.9594
     14.1130     19.0229     17.0947     21.8169     19.6056    0.968592    0.947324    0.123508     19.7903     21.0910     18.3359     19.5411
     14.1640     16.1014     16.8915     18.4664     19.3725    0.996104    0.851427    0.132299     23.3320     21.5111     21.6173     19.9303
     14.2150     18.4839     16.5213     21.1988     18.9480     1.06187    0.780366    0.132676     19.6777     21.8157     18.2317     20.2125
     14.2660     16.5445     16.1443     18.9746     18.5155     1.15557    0.746273    0.127978     19.9587     22.6933     18.4921     21.0257
     14.3170     10.7730     16.1070     12.3554     18.4728     1.20331    0.754202    0.121368     24.2876     23.8599     22.5029     22.1065
     14.3680     16.3657     16.6930     18.7695     19.1449     1.19161    0.861328    0.117522     20.6335     25.5232     19.1173     23.6476
     14.4190     18.6799     17.6239     21.4236     20.2125     1.12309     1.06796    0.110198     23.4444     27.6002     21.7216     25.5720
     14.4700     12.8829     18.8356     14.7751     21.6022     1.20460     1.26234    0.107047     28.1107     30.1692     26.0450     27.9522
     14.5210     17.8355     20.6780     20.4552     23.7152     1.26939     1.51994   0.0996431     41.3229     33.0085     38.2863     30.5828
     14.5720     24.5740     22.9365     28.1834     26.3054     1.40514     1.72797    0.100971     36.2633     35.1496     33.5985     32.5666
