#------------------------------------------------------------
~VERSION INFORMATION
VERS.               2.0  :CWLS LOG ASCII STANDARD - VERSION 2.0
WRAP.                NO  :ONE LINE PER DEPTH STEP
#------------------------------------------------------------
~WELL INFORMATION
STRT.M         0.343000  :FIRST INDEX VALUE
STOP.M          88.9300  :LAST INDEX VALUE
STEP.M        0.0510000  :STEP
NULL.           -999.25  :NULL VALUE
COMP.                    :COMPANY
WELL.                    :WELL
FLD.                     :FIELD
LOC.                     :LOCATION
SRVC.                    :
CTRY. Germany            :COUNTRY
STAT.                    :STATE
CNTY.                    :
DATE.                    :DATE
API.                     :
#------------------------------------------------------------
~CURVE INFORMATION
MD                       :DEPTH
SGRRAW.API               :SGRRaw
SGR.API                  :SGR
SGRRAW_COR.API           :SGRRAW_COR
SGR_COR.API              :SGR_COR
232TH.PPM                :232TH
238U.PPM                 :238U
40K.%                    :40K
GRRAW.API                :GRRaw
GR.API                   :GR
GRRAW_COR.API            :GRRAW_COR
GR_COR.API               :GR_COR
#------------------------------------------------------------
~PARAMETER INFORMATION
001_Bohrungsnummer. 314532  :001_Bohrungsnummer
002_Firma. Geologischer Dienst NRW_Fachbereich 34_Geophysik, Landeserdbebendienst_34.23 Bohrlochgeophysik_De-Greiff-Straße 195_47803 Krefeld  :002_Firma
003_GR.                  :003_GR
004_GR_FEL.         yes  :004_GR_FEL
005_GR_SAL_TEMP.         :005_GR_SAL_TEMP
006_SGR.            yes  :006_SGR
007_CAL3.                :007_CAL3
008_ORI.                 :008_ORI
009_SUSZ.                :009_SUSZ
010_OBI.            yes  :010_OBI
011_STpF.                :011_STpF
012_SAMP.                :012_SAMP
013_Log_Feld.            :013_Log_Feld
014_Log_End.        yes  :014_Log_End
015_Teufenskala.    200  :015_Teufenskala
016_Bohrung. IGL Hastenrath_Albertstraße 57_52249 Eschweiler  :016_Bohrung
017_TK25. 5203 Stolberg (Rheinland)  :017_TK25
018_Land.   Deutschland  :018_Land
019_Koordinaten#1. 32U 307542,00 +/- 5 m  :019_Koordinaten#1
020_Koordinaten#2. UTM 5629294,00 +/- 5 m  :020_Koordinaten#2
021_Koordinaten#3. (UTM 32.Zone ETRS89)  :021_Koordinaten#3
022_Hoehe.       233,00  :022_Hoehe
023_DGPS_Ja.             :023_DGPS_Ja
024_DGPS_Nein.      yes  :024_DGPS_Nein
025_Auftraggeber. Heß, O. (GD NRW)  :025_Auftraggeber
026_Bohrfirma. H. Anger's Söhne_Bohr- und Brunnenbaugesellschaft mbH_Gutenbergstr. 33_37235 Hessisch Lichtenau  :026_Bohrfirma
027_Bohrmeister.   k.A.  :027_Bohrmeister
028_Bohrungsart. Geologische Untersuchung  :028_Bohrungsart
029_Bohrungsverfahren. Kernbohrung  :029_Bohrungsverfahren
030_TeufenBez.      GOK  :030_TeufenBez
031_Messbez.      -1,73  :031_Messbez
032_Bohrbez.        GOK  :032_Bohrbez
033_Bearbeiter.          :033_Bearbeiter
034_Deklination.   1,77  :034_Deklination
100_Stand_ID.       156  :100_Stand_ID
101_Stand_OD.       178  :101_Stand_OD
102_Stand_RL.       1,5  :102_Stand_RL
103_Stand_MA.     Stahl  :103_Stand_MA
104_Stand_vb. -1,02 / 6,12  :104_Stand_vb
105_Stand_MNr.    1 - 3  :105_Stand_MNr
106_StandM_ID.      156  :106_StandM_ID
107_StandM_OD.      178  :107_StandM_OD
108_StandM_RL.     0,11  :108_StandM_RL
109_StandM_MA.    Stahl  :109_StandM_MA
110_StandM_vb. -1,02 / 6,12  :110_StandM_vb
111_StandM_MNr.   1 - 3  :111_StandM_MNr
112_Gest_ID.        126  :112_Gest_ID
113_Gest_OD.        140  :113_Gest_OD
114_Gest_RL.       3,00  :114_Gest_RL
115_Gest_MA.      Stahl  :115_Gest_MA
116_Gest_vb. -1,73 / 90,00  :116_Gest_vb
117_Gest_MNr.         1  :117_Gest_MNr
118_GestM_ID.       126  :118_GestM_ID
119_GestM_OD.       140  :119_GestM_OD
120_GestM_RL.     0,065  :120_GestM_RL
121_GestM_MA.     Stahl  :121_GestM_MA
122_GestM_vb. -1,73 / 90,00  :122_GestM_vb
123_GestM_MNr.        1  :123_GestM_MNr
124_Verr_ID.        ./.  :124_Verr_ID
125_Verr_OD.        ./.  :125_Verr_OD
126_Verr_RL.        ./.  :126_Verr_RL
127_Verr_MA.        ./.  :127_Verr_MA
128_Verr_vb.        ./.  :128_Verr_vb
129_Verr_MNr.       ./.  :129_Verr_MNr
130_oBL_ID.         146  :130_oBL_ID
134_oBL_vb. 6,12 / 90,00  :134_oBL_vb
135_oBL_MNr.      2 - 3  :135_oBL_MNr
136_MeißelA.        PCD  :136_MeißelA
137_MeißelD.        146  :137_MeißelD
138_Sp_Ja.          yes  :138_Sp_Ja
139_Sp_Nein.             :139_Sp_Nein
140_Sp_W.           yes  :140_Sp_W
141_Sp_B.                :141_Sp_B
142_Sp_A.           yes  :142_Sp_A
143_Sp_T.                :143_Sp_T
144_Sp_GW.               :144_Sp_GW
145_Sp_S.                :145_Sp_S
146_SpStop.        k.A.  :146_SpStop
147_SpProbe_Ja.          :147_SpProbe_Ja
148_SpProbe_Nein.   yes  :148_SpProbe_Nein
149_SpProbe_S.           :149_SpProbe_S
150_Dichte.         ./.  :150_Dichte
151_sonstiger_Zusatz. sonstiges  :151_sonstiger_Zusatz
152_sonstige_SPprobe. sonstiges  :152_sonstige_SPprobe
154_VerrM_ID.       ./.  :154_VerrM_ID
155_VerrM_OD.       ./.  :155_VerrM_OD
156_VerrM_RL.       ./.  :156_VerrM_RL
157_VerrM_MA.       ./.  :157_VerrM_MA
158_VerrM_vb.       ./.  :158_VerrM_vb
159_VerrM_MNr.      ./.  :159_VerrM_MNr
200_MessNr#1. 1 aufwärts  :200_MessNr#1
201_Datum#1. 27 Apr 2018  :201_Datum#1
202_Sonde#1.        SGR  :202_Sonde#1
203_RohrÜber#1.   -1,73  :203_RohrÜber#1
204_FlüssigSP#1.  51,04  :204_FlüssigSP#1
205_FlüssigZP#1.   9_45  :205_FlüssigZP#1
206_ErrTiefe#1.   90,00  :206_ErrTiefe#1
207_TiefsterMP#1. 88,93  :207_TiefsterMP#1
208_HöchsterMP#1.  0,34  :208_HöchsterMP#1
209_Messbeginn#1.  9_32  :209_Messbeginn#1
210_MessNr#2. 2 aufwärts  :210_MessNr#2
211_Datum#2. 27 Apr 2018  :211_Datum#2
212_Sonde#2.        OBI  :212_Sonde#2
213_RohrÜber#2.   -1,02  :213_RohrÜber#2
214_FlüssigSP#2.   k.A.  :214_FlüssigSP#2
215_FlüssigZP#2.   k.A.  :215_FlüssigZP#2
216_ErrTiefe#2.   12,50  :216_ErrTiefe#2
217_TiefsterMP#2. 12,43  :217_TiefsterMP#2
218_HöchsterMP#2.  5,44  :218_HöchsterMP#2
219_Messbeginn#2. 12_10  :219_Messbeginn#2
220_MessNr#3. 3 aufwärts  :220_MessNr#3
221_Datum#3. 27 Apr 2018  :221_Datum#3
222_Sonde#3.   GR / FEL  :222_Sonde#3
223_RohrÜber#3.   -1,02  :223_RohrÜber#3
224_FlüssigSP#3.   k.A.  :224_FlüssigSP#3
225_FlüssigZP#3.   k.A.  :225_FlüssigZP#3
226_ErrTiefe#3.   39,06  :226_ErrTiefe#3
227_TiefsterMP#3. 37,99  :227_TiefsterMP#3
228_HöchsterMP#3.  2,80  :228_HöchsterMP#3
229_Messbeginn#3. 12_28  :229_Messbeginn#3
230_MessNr#4.            :230_MessNr#4
231_Datum#4.             :231_Datum#4
232_Sonde#4.             :232_Sonde#4
233_RohrÜber#4.          :233_RohrÜber#4
234_FlüssigSP#4.         :234_FlüssigSP#4
235_FlüssigZP#4.         :235_FlüssigZP#4
236_ErrTiefe#4.          :236_ErrTiefe#4
237_TiefsterMP#4.        :237_TiefsterMP#4
238_HöchsterMP#4.        :238_HöchsterMP#4
239_Messbeginn#4.        :239_Messbeginn#4
240_MessNr#5.            :240_MessNr#5
241_Datum#5.             :241_Datum#5
242_Sonde#5.             :242_Sonde#5
243_RohrÜber#5.          :243_RohrÜber#5
244_FlüssigSP#5.         :244_FlüssigSP#5
245_FlüssigZP#5.         :245_FlüssigZP#5
246_ErrTiefe#5.          :246_ErrTiefe#5
247_TiefsterMP#5.        :247_TiefsterMP#5
248_HöchsterMP#5.        :248_HöchsterMP#5
249_Messbeginn#5.        :249_Messbeginn#5
250_TeufeBM.      90,00  :250_TeufeBM
251_Messwagen. KR-GD 600  :251_Messwagen
252_Messtrupp. Orth / Helbing  :252_Messtrupp
253_Bemerkungen. OBI-Sonde ist bei 12,50 m aufgesetzt._GRFEL-Sonde ist überhalb der Wassersäule bei 39,06 m aufgesetzt, daher keine Wiederstandswerte._Die Stückelung der Schutzverrohrung ist unklar (Überstand 1,02 m gemessen, Ende Schneidschuh 6,12 m ergibt sich durch_OBI)  :253_Bemerkungen
254_Korrekturen. GR_COR / SGR_COR_ Von Bohrlocheinflüssen korrigiertes GR-Log nach (Lehmann, 2010)  :254_Korrekturen
259_Anmerkung. Interpretationen und Beurteilungen der von uns durchgeführten Messungen werden von unserem Personal nach bestem Wissen und Gewissen durchgeführt,_ohne jedoch für die Genauigkeit bzw. Richtigkeit zu garantieren. Ebenso lehnen wir jegliche Haftung oder Verantwortung für irgendwelche Verluste, Kosten oder Schäden ab, die unserem Auftraggeber dadurch entstehen können.  :259_Anmerkung
300_Run#1.            1  :300_Run#1
301_Trip#1.         ./.  :301_Trip#1
302_Gerätedaten#1.  SGR                 LogIn 2901               k.A.                      191 mm  :302_Gerätedaten#1
303_Run#2.            2  :303_Run#2
304_Trip#2.         ./.  :304_Trip#2
305_Gerätedaten#2.  OBI                 ALT QL40-OBI-2G 151105   k.A.                      86.6 mm  :305_Gerätedaten#2
306_Run#3.            3  :306_Run#3
307_Trip#3.         ./.  :307_Trip#3
308_Gerätedaten#3.  GR / FEL            LogIn GaFEL 1125004      05.11.2015 / 22.10.2015   157 / 797 mm  :308_Gerätedaten#3
309_Run#4.               :309_Run#4
310_Trip#4.              :310_Trip#4
311_Gerätedaten#4.       :311_Gerätedaten#4
312_Run#5.               :312_Run#5
313_Trip#5.              :313_Trip#5
314_Gerätedaten#5.       :314_Gerätedaten#5
315_Run#6.               :315_Run#6
316_Trip#6.              :316_Trip#6
317_Gerätedaten#6.       :317_Gerätedaten#6
318_Run#7.               :318_Run#7
319_Trip#7.              :319_Trip#7
320_Gerätedaten#7.       :320_Gerätedaten#7
321_Run#8.               :321_Run#8
322_Trip#8.              :322_Trip#8
323_Gerätedaten#8.       :323_Gerätedaten#8
324_Run#9.               :324_Run#9
325_Trip#9.              :325_Trip#9
326_Gerätedaten#9.       :326_Gerätedaten#9
327_Run#10.              :327_Run#10
328_Trip#10.             :328_Trip#10
329_Gerätedaten#10.      :329_Gerätedaten#10
330_Gerätedaten#0.  GERÄT               SONDEN NR.               LETZTE KALIBRIERUNG       ABSTAND TIEFSTER MESSPUNKT  :330_Gerätedaten#0
#------------------------------------------------------------
~OTHER
#------------------------------------------------------------
~A   MD      SGRRAW         SGR  SGRRAW_COR     SGR_COR       232TH        238U         40K       GRRAW          GR   GRRAW_COR      GR_COR
# ...
     51.7510     3.29665     4.41239     4.28090     5.43812   0.0261050    0.576650    0.000000    -999.250    -999.250    -999.250    -999.250
     51.8020     5.29794     4.45338     6.87960     5.58074  0.00912784    0.581575    0.000000    -999.250    -999.250    -999.250    -999.250
     51.8530     6.48831     4.48118     8.42540     5.69266    0.000000    0.581288    0.000000    -999.250    -999.250    -999.250    -999.250
     51.9040     2.83591     4.38407     3.68260     5.63046   0.0171060    0.573102    0.000000    -999.250    -999.250    -999.250    -999.250
     51.9550     2.83436     4.47798     3.68050     5.79410    0.103409    0.535986    0.000000    -999.250    -999.250    -999.250    -999.250
     52.0060     3.23660     4.69881     4.20290     6.10163    0.276432    0.460337    0.000000    -999.250    -999.250    -999.250    -999.250
     52.0570     5.29720     5.06909     6.87870     6.58246    0.488949    0.377165    0.000000    -999.250    -999.250    -999.250    -999.250
     52.1080     6.89762     5.46244     8.95690     7.09325    0.645817    0.323241    0.000000    -999.250    -999.250    -999.250    -999.250
     52.1590     5.65399     5.75430     7.34200     7.47224    0.699633    0.294014  0.00702675    -999.250    -999.250    -999.250    -999.250
     52.2100     7.27538     6.05767     9.44740     7.86617    0.645887    0.290277   0.0211298    -999.250    -999.250    -999.250    -999.250
     52.2610     5.27537     6.21433     6.85030     8.06960    0.528186    0.317730   0.0333895    -999.250    -999.250    -999.250    -999.250
     52.3120     6.92042     6.36988     8.98650     8.27159    0.412755    0.358810   0.0385827    -999.250    -999.250    -999.250    -999.250
     52.3630     8.12824     6.42349     10.5549     8.34122    0.341070    0.398176   0.0358474    -999.250    -999.250    -999.250    -999.250
     52.4140     4.84362     6.32225     6.28970     8.20975    0.322240    0.420495   0.0298216    -999.250    -999.250    -999.250    -999.250
     52.4650     5.23367     6.24745     6.79620     8.11261    0.334856    0.445550   0.0214866    -999.250    -999.250    -999.250    -999.250
     52.5160     6.43355     6.23307     8.35430     8.09395    0.368384    0.466035   0.0128543    -999.250    -999.250    -999.250    -999.250
     52.5670     7.67642     6.18822     9.96820     8.03571    0.428454    0.469405  0.00537165    -999.250    -999.250    -999.250    -999.250
     52.6180     6.93476     6.07563     9.00510     7.88951    0.501397    0.456521    0.000000    -999.250    -999.250    -999.250    -999.250
     52.6690     5.38409     5.98290     6.99150     7.76908    0.550604    0.440624    0.000000    -999.250    -999.250    -999.250    -999.250
     52.7200     3.74161     5.98533     4.85870     7.77225    0.528622    0.461576    0.000000    -999.250    -999.250    -999.250    -999.250
     52.7710     6.98881     6.08423     9.07530     7.90067    0.426144    0.526878    0.000000    -999.250    -999.250    -999.250    -999.250
     52.8220     4.49465     6.01907     5.83650     7.81605    0.299633    0.609296    0.000000    -999.250    -999.250    -999.250    -999.250
     52.8730     7.63881     5.96283     9.91930     7.74302    0.170961    0.671318    0.000000    -999.250    -999.250    -999.250    -999.250
     52.9240     7.66384     5.78560     9.95190     7.51288   0.0769672    0.703855    0.000000    -999.250    -999.250    -999.250    -999.250
     52.9750     6.06613     5.47607     7.87720     7.11094   0.0598315    0.603558   0.0143112    -999.250    -999.250    -999.250    -999.250
     53.0260     6.11216     5.12450     7.93690     6.65439   0.0830029    0.451457   0.0331120    -999.250    -999.250    -999.250    -999.250
     53.0770     2.83786     4.70533     3.68510     6.11009   0.0990386    0.317681   0.0481268    -999.250    -999.250    -999.250    -999.250
     53.1280     2.87695     4.49224     3.73580     5.83337   0.0782755    0.271625   0.0557383    -999.250    -999.250    -999.250    -999.250
     53.1790     3.24549     4.45851     4.21440     5.78958   0.0204162    0.322051   0.0496134    -999.250    -999.250    -999.250    -999.250
     53.2300     3.63024     4.63665     4.71400     6.02091    0.000000    0.391903   0.0418236    -999.250    -999.250    -999.250    -999.250
     53.2810     5.23439     5.01655     6.79710     6.51423    0.000000    0.389207   0.0549157    -999.250    -999.250    -999.250    -999.250
     53.3320     6.04957     5.46600     7.85570     7.09786    0.000000    0.446967   0.0580277    -999.250    -999.250    -999.250    -999.250
     53.3830     6.10542     5.98667     7.92820     7.77398    0.000000    0.528979   0.0587809    -999.250    -999.250    -999.250    -999.250
     53.4340     7.71652     6.45193     10.0203     8.37814    0.000000    0.601090   0.0599901    -999.250    -999.250    -999.250    -999.250
     53.4850     6.47941     6.71645     8.41380     8.72163    0.000000    0.676779   0.0587611    -999.250    -999.250    -999.250    -999.250
     53.5360     6.85993     6.83624     8.90790     8.87718    0.000000    0.741774   0.0539147    -999.250    -999.250    -999.250    -999.250
     53.5870     6.90615     6.91414     8.96800     8.97834    0.000000    0.820099   0.0409316    -999.250    -999.250    -999.250    -999.250
     53.6380     8.55112     6.92278     11.1040     8.98956  0.00125867    0.899702   0.0200396    -999.250    -999.250    -999.250    -999.250
     53.6890     7.37835     6.68045     9.58110     8.67488    0.000000    0.959771  0.000624380    -999.250    -999.250    -999.250    -999.250
     53.7400     5.32954     6.44631     6.92070     8.37084    0.000000    0.924449    0.000000    -999.250    -999.250    -999.250    -999.250
     53.7910     4.50274     6.32415     5.84700     8.21222    0.000000    0.879702    0.000000    -999.250    -999.250    -999.250    -999.250
     53.8420     8.58188     6.26773     11.1440     8.13895   0.0166105    0.825282    0.000000    -999.250    -999.250    -999.250    -999.250
     53.8930     6.08446     6.04854     7.90100     7.85433   0.0726759    0.744737    0.000000    -999.250    -999.250    -999.250    -999.250
     53.9440     2.01763     5.87377     2.62000     7.62738    0.140139    0.630416  0.00792864    -999.250    -999.250    -999.250    -999.250
     53.9950     8.94598     5.99221     11.6168     7.78118    0.205936    0.525659   0.0171853    -999.250    -999.250    -999.250    -999.250
     54.0460     6.97425     5.93083     9.05640     7.70147    0.252924    0.447086   0.0248067    -999.250    -999.250    -999.250    -999.250
     54.0970     4.89243     5.82080     6.35300     7.55859    0.298127    0.375094   0.0311992    -999.250    -999.250    -999.250    -999.250
     54.1480     4.44424     5.67731     5.77110     7.37226    0.367027    0.301278   0.0373439    -999.250    -999.250    -999.250    -999.250
     54.1990     6.86180     5.66127     8.91040     7.35144    0.437314    0.246848   0.0432804    -999.250    -999.250    -999.250    -999.250
     54.2500     6.03968     5.65939     7.84280     7.34898    0.457750    0.244271   0.0466105    -999.250    -999.250    -999.250    -999.250
     54.3010     4.04022     5.55723     5.24640     7.21632    0.411556    0.313736   0.0454212    -999.250    -999.250    -999.250    -999.250
     54.3520     6.86743     5.75673     8.91770     7.47538    0.300812    0.448592   0.0388801    -999.250    -999.250    -999.250    -999.250
     54.4030     4.07758     5.98216     5.29490     7.76811    0.130763    0.646749   0.0289197    -999.250    -999.250    -999.250    -999.250
     54.4540     4.89512     6.25337     6.35650     8.12028    0.000000    0.825351   0.0172051    -999.250    -999.250    -999.250    -999.250
     54.5050     8.14842     6.49103     10.5811     8.42889    0.000000    0.894430   0.0101883    -999.250    -999.250    -999.250    -999.250
     54.5560     6.45200     6.70662     8.37820     8.70884    0.000000    0.916669  0.00722497    -999.250    -999.250    -999.250    -999.250
