#------------------------------------------------------------
~VERSION INFORMATION
VERS.               2.0  :CWLS LOG ASCII STANDARD - VERSION 2.0
WRAP.                NO  :ONE LINE PER DEPTH STEP
#------------------------------------------------------------
~WELL INFORMATION
STRT.M         0.343000  :FIRST INDEX VALUE
STOP.M          88.9300  :LAST INDEX VALUE
STEP.M        0.0510000  :STEP
NULL.           -999.25  :NULL VALUE
COMP.                    :COMPANY
WELL.                    :WELL
FLD.                     :FIELD
LOC.                     :LOCATION
SRVC.                    :
CTRY. Germany            :COUNTRY
STAT.                    :STATE
CNTY.                    :
DATE.                    :DATE
API.                     :
#------------------------------------------------------------
~CURVE INFORMATION
MD                       :DEPTH
SGRRAW.API               :SGRRaw
SGR.API                  :SGR
SGRRAW_COR.API           :SGRRAW_COR
SGR_COR.API              :SGR_COR
232TH.PPM                :232TH
238U.PPM                 :238U
40K.%                    :40K
GRRAW.API                :GRRaw
GR.API                   :GR
GRRAW_COR.API            :GRRAW_COR
GR_COR.API               :GR_COR
#------------------------------------------------------------
~PARAMETER INFORMATION
001_Bohrungsnummer. 314532  :001_Bohrungsnummer
002_Firma. Geologischer Dienst NRW_Fachbereich 34_Geophysik, Landeserdbebendienst_34.23 Bohrlochgeophysik_De-Greiff-Straße 195_47803 Krefeld  :002_Firma
003_GR.                  :003_GR
004_GR_FEL.         yes  :004_GR_FEL
005_GR_SAL_TEMP.         :005_GR_SAL_TEMP
006_SGR.            yes  :006_SGR
007_CAL3.                :007_CAL3
008_ORI.                 :008_ORI
009_SUSZ.                :009_SUSZ
010_OBI.            yes  :010_OBI
011_STpF.                :011_STpF
012_SAMP.                :012_SAMP
013_Log_Feld.            :013_Log_Feld
014_Log_End.        yes  :014_Log_End
015_Teufenskala.    200  :015_Teufenskala
016_Bohrung. IGL Hastenrath_Albertstraße 57_52249 Eschweiler  :016_Bohrung
017_TK25. 5203 Stolberg (Rheinland)  :017_TK25
018_Land.   Deutschland  :018_Land
019_Koordinaten#1. 32U 307542,00 +/- 5 m  :019_Koordinaten#1
020_Koordinaten#2. UTM 5629294,00 +/- 5 m  :020_Koordinaten#2
021_Koordinaten#3. (UTM 32.Zone ETRS89)  :021_Koordinaten#3
022_Hoehe.       233,00  :022_Hoehe
023_DGPS_Ja.             :023_DGPS_Ja
024_DGPS_Nein.      yes  :024_DGPS_Nein
025_Auftraggeber. Heß, O. (GD NRW)  :025_Auftraggeber
026_Bohrfirma. H. Anger's Söhne_Bohr- und Brunnenbaugesellschaft mbH_Gutenbergstr. 33_37235 Hessisch Lichtenau  :026_Bohrfirma
027_Bohrmeister.   k.A.  :027_Bohrmeister
028_Bohrungsart. Geologische Untersuchung  :028_Bohrungsart
029_Bohrungsverfahren. Kernbohrung  :029_Bohrungsverfahren
030_TeufenBez.      GOK  :030_TeufenBez
031_Messbez.      -1,73  :031_Messbez
032_Bohrbez.        GOK  :032_Bohrbez
033_Bearbeiter.          :033_Bearbeiter
034_Deklination.   1,77  :034_Deklination
100_Stand_ID.       156  :100_Stand_ID
101_Stand_OD.       178  :101_Stand_OD
102_Stand_RL.       1,5  :102_Stand_RL
103_Stand_MA.     Stahl  :103_Stand_MA
104_Stand_vb. -1,02 / 6,12  :104_Stand_vb
105_Stand_MNr.    1 - 3  :105_Stand_MNr
106_StandM_ID.      156  :106_StandM_ID
107_StandM_OD.      178  :107_StandM_OD
108_StandM_RL.     0,11  :108_StandM_RL
109_StandM_MA.    Stahl  :109_StandM_MA
110_StandM_vb. -1,02 / 6,12  :110_StandM_vb
111_StandM_MNr.   1 - 3  :111_StandM_MNr
112_Gest_ID.        126  :112_Gest_ID
113_Gest_OD.        140  :113_Gest_OD
114_Gest_RL.       3,00  :114_Gest_RL
115_Gest_MA.      Stahl  :115_Gest_MA
116_Gest_vb. -1,73 / 90,00  :116_Gest_vb
117_Gest_MNr.         1  :117_Gest_MNr
118_GestM_ID.       126  :118_GestM_ID
119_GestM_OD.       140  :119_GestM_OD
120_GestM_RL.     0,065  :120_GestM_RL
121_GestM_MA.     Stahl  :121_GestM_MA
122_GestM_vb. -1,73 / 90,00  :122_GestM_vb
123_GestM_MNr.        1  :123_GestM_MNr
124_Verr_ID.        ./.  :124_Verr_ID
125_Verr_OD.        ./.  :125_Verr_OD
126_Verr_RL.        ./.  :126_Verr_RL
127_Verr_MA.        ./.  :127_Verr_MA
128_Verr_vb.        ./.  :128_Verr_vb
129_Verr_MNr.       ./.  :129_Verr_MNr
130_oBL_ID.         146  :130_oBL_ID
134_oBL_vb. 6,12 / 90,00  :134_oBL_vb
135_oBL_MNr.      2 - 3  :135_oBL_MNr
136_MeißelA.        PCD  :136_MeißelA
137_MeißelD.        146  :137_MeißelD
138_Sp_Ja.          yes  :138_Sp_Ja
139_Sp_Nein.             :139_Sp_Nein
140_Sp_W.           yes  :140_Sp_W
141_Sp_B.                :141_Sp_B
142_Sp_A.           yes  :142_Sp_A
143_Sp_T.                :143_Sp_T
144_Sp_GW.               :144_Sp_GW
145_Sp_S.                :145_Sp_S
146_SpStop.        k.A.  :146_SpStop
147_SpProbe_Ja.          :147_SpProbe_Ja
148_SpProbe_Nein.   yes  :148_SpProbe_Nein
149_SpProbe_S.           :149_SpProbe_S
150_Dichte.         ./.  :150_Dichte
151_sonstiger_Zusatz. sonstiges  :151_sonstiger_Zusatz
152_sonstige_SPprobe. sonstiges  :152_sonstige_SPprobe
154_VerrM_ID.       ./.  :154_VerrM_ID
155_VerrM_OD.       ./.  :155_VerrM_OD
156_VerrM_RL.       ./.  :156_VerrM_RL
157_VerrM_MA.       ./.  :157_VerrM_MA
158_VerrM_vb.       ./.  :158_VerrM_vb
159_VerrM_MNr.      ./.  :159_VerrM_MNr
200_MessNr#1. 1 aufwärts  :200_MessNr#1
201_Datum#1. 27 Apr 2018  :201_Datum#1
202_Sonde#1.        SGR  :202_Sonde#1
203_RohrÜber#1.   -1,73  :203_RohrÜber#1
204_FlüssigSP#1.  51,04  :204_FlüssigSP#1
205_FlüssigZP#1.   9_45  :205_FlüssigZP#1
206_ErrTiefe#1.   90,00  :206_ErrTiefe#1
207_TiefsterMP#1. 88,93  :207_TiefsterMP#1
208_HöchsterMP#1.  0,34  :208_HöchsterMP#1
209_Messbeginn#1.  9_32  :209_Messbeginn#1
210_MessNr#2. 2 aufwärts  :210_MessNr#2
211_Datum#2. 27 Apr 2018  :211_Datum#2
212_Sonde#2.        OBI  :212_Sonde#2
213_RohrÜber#2.   -1,02  :213_RohrÜber#2
214_FlüssigSP#2.   k.A.  :214_FlüssigSP#2
215_FlüssigZP#2.   k.A.  :215_FlüssigZP#2
216_ErrTiefe#2.   12,50  :216_ErrTiefe#2
217_TiefsterMP#2. 12,43  :217_TiefsterMP#2
218_HöchsterMP#2.  5,44  :218_HöchsterMP#2
219_Messbeginn#2. 12_10  :219_Messbeginn#2
220_MessNr#3. 3 aufwärts  :220_MessNr#3
221_Datum#3. 27 Apr 2018  :221_Datum#3
222_Sonde#3.   GR / FEL  :222_Sonde#3
223_RohrÜber#3.   -1,02  :223_RohrÜber#3
224_FlüssigSP#3.   k.A.  :224_FlüssigSP#3
225_FlüssigZP#3.   k.A.  :225_FlüssigZP#3
226_ErrTiefe#3.   39,06  :226_ErrTiefe#3
227_TiefsterMP#3. 37,99  :227_TiefsterMP#3
228_HöchsterMP#3.  2,80  :228_HöchsterMP#3
229_Messbeginn#3. 12_28  :229_Messbeginn#3
230_MessNr#4.            :230_MessNr#4
231_Datum#4.             :231_Datum#4
232_Sonde#4.             :232_Sonde#4
233_RohrÜber#4.          :233_RohrÜber#4
234_FlüssigSP#4.         :234_FlüssigSP#4
235_FlüssigZP#4.         :235_FlüssigZP#4
236_ErrTiefe#4.          :236_ErrTiefe#4
237_TiefsterMP#4.        :237_TiefsterMP#4
238_HöchsterMP#4.        :238_HöchsterMP#4
239_Messbeginn#4.        :239_Messbeginn#4
240_MessNr#5.            :240_MessNr#5
241_Datum#5.             :241_Datum#5
242_Sonde#5.             :242_Sonde#5
243_RohrÜber#5.          :243_RohrÜber#5
244_FlüssigSP#5.         :244_FlüssigSP#5
245_FlüssigZP#5.         :245_FlüssigZP#5
246_ErrTiefe#5.          :246_ErrTiefe#5
247_TiefsterMP#5.        :247_TiefsterMP#5
248_HöchsterMP#5.        :248_HöchsterMP#5
249_Messbeginn#5.        :249_Messbeginn#5
250_TeufeBM.      90,00  :250_TeufeBM
251_Messwagen. KR-GD 600  :251_Messwagen
252_Messtrupp. Orth / Helbing  :252_Messtrupp
253_Bemerkungen. OBI-Sonde ist bei 12,50 m aufgesetzt._GRFEL-Sonde ist überhalb der Wassersäule bei 39,06 m aufgesetzt, daher keine Wiederstandswerte._Die Stückelung der Schutzverrohrung ist unklar (Überstand 1,02 m gemessen, Ende Schneidschuh 6,12 m ergibt sich durch_OBI)  :253_Bemerkungen
254_Korrekturen. GR_COR / SGR_COR_ Von Bohrlocheinflüssen korrigiertes GR-Log nach (Lehmann, 2010)  :254_Korrekturen
259_Anmerkung. Interpretationen und Beurteilungen der von uns durchgeführten Messungen werden von unserem Personal nach bestem Wissen und Gewissen durchgeführt,_ohne jedoch für die Genauigkeit bzw. Richtigkeit zu garantieren. Ebenso lehnen wir jegliche Haftung oder Verantwortung für irgendwelche Verluste, Kosten oder Schäden ab, die unserem Auftraggeber dadurch entstehen können.  :259_Anmerkung
300_Run#1.            1  :300_Run#1
301_Trip#1.         ./.  :301_Trip#1
302_Gerätedaten#1.  SGR                 LogIn 2901               k.A.                      191 mm  :302_Gerätedaten#1
303_Run#2.            2  :303_Run#2
304_Trip#2.         ./.  :304_Trip#2
305_Gerätedaten#2.  OBI                 ALT QL40-OBI-2G 151105   k.A.                      86.6 mm  :305_Gerätedaten#2
306_Run#3.            3  :306_Run#3
307_Trip#3.         ./.  :307_Trip#3
308_Gerätedaten#3.  GR / FEL            LogIn GaFEL 1125004      05.11.2015 / 22.10.2015   157 / 797 mm  :308_Gerätedaten#3
309_Run#4.               :309_Run#4
310_Trip#4.              :310_Trip#4
311_Gerätedaten#4.       :311_Gerätedaten#4
312_Run#5.               :312_Run#5
313_Trip#5.              :313_Trip#5
314_Gerätedaten#5.       :314_Gerätedaten#5
315_Run#6.               :315_Run#6
316_Trip#6.              :316_Trip#6
317_Gerätedaten#6.       :317_Gerätedaten#6
318_Run#7.               :318_Run#7
319_Trip#7.              :319_Trip#7
320_Gerätedaten#7.       :320_Gerätedaten#7
321_Run#8.               :321_Run#8
322_Trip#8.              :322_Trip#8
323_Gerätedaten#8.       :323_Gerätedaten#8
324_Run#9.               :324_Run#9
325_Trip#9.              :325_Trip#9
326_Gerätedaten#9.       :326_Gerätedaten#9
327_Run#10.              :327_Run#10
328_Trip#10.             :328_Trip#10
329_Gerätedaten#10.      :329_Gerätedaten#10
330_Gerätedaten#0.  GERÄT               SONDEN NR.               LETZTE KALIBRIERUNG       ABSTAND TIEFSTER MESSPUNKT  :330_Gerätedaten#0
#------------------------------------------------------------
~OTHER
#------------------------------------------------------------
~A   MD      SGRRAW         SGR  SGRRAW_COR     SGR_COR       232TH        238U         40K       GRRAW          GR   GRRAW_COR      GR_COR
# ...
     40.3270     12.1873     11.7905     13.9774     13.5223     1.60806    0.101011   0.0835084    -999.250    -999.250    -999.250    -999.250
     40.3780     12.6057     12.0346     14.4572     13.8023     1.53584    0.169157   0.0795044    -999.250    -999.250    -999.250    -999.250
     40.4290     13.4153     12.2211     15.3857     14.0161     1.32950    0.341496   0.0687016    -999.250    -999.250    -999.250    -999.250
     40.4800     8.90553     12.2400     10.2136     14.0378     1.07584    0.578027   0.0504955    -999.250    -999.250    -999.250    -999.250
     40.5310     12.5315     12.3856     14.3722     14.2048    0.909306    0.799672   0.0284737    -999.250    -999.250    -999.250    -999.250
     40.5820     10.5017     12.4344     12.0442     14.2608     1.15670    0.739454   0.0153419    -999.250    -999.250    -999.250    -999.250
     40.6330     15.0145     12.7153     17.2198     14.5830     1.36744    0.680039   0.0107532    -999.250    -999.250    -999.250    -999.250
     40.6840     13.4079     12.8136     15.3772     14.6956     1.46656    0.627710   0.0163528    -999.250    -999.250    -999.250    -999.250
     40.7350     13.0591     12.8313     14.9772     14.7160     1.45376    0.591764   0.0287413    -999.250    -999.250    -999.250    -999.250
     40.7860     14.1408     12.7681     16.2177     14.6434     1.32443    0.573379   0.0407928    -999.250    -999.250    -999.250    -999.250
     40.8370     12.5418     12.4958     14.3840     14.3312     1.14878    0.596432   0.0484242    -999.250    -999.250    -999.250    -999.250
     40.8880     12.0958     12.1346     13.8725     13.9169    0.934539    0.652259   0.0503468    -999.250    -999.250    -999.250    -999.250
     40.9390     11.2648     11.6656     12.9194     13.3790    0.724420    0.725381   0.0501090    -999.250    -999.250    -999.250    -999.250
     40.9900     11.3142     11.2718     12.9760     12.9274    0.576808    0.777879   0.0522596    -999.250    -999.250    -999.250    -999.250
     41.0410     9.78485     11.0191     11.2220     12.6376    0.561011    0.753785   0.0592170    -999.250    -999.250    -999.250    -999.250
     41.0920     11.8528     10.7332     13.5937     12.3097    0.801982    0.553013   0.0700693    -999.250    -999.250    -999.250    -999.250
     41.1430     9.35004     10.3962     10.7234     11.9232     1.04740    0.356947   0.0759762    -999.250    -999.250    -999.250    -999.250
     41.1940     9.80785     10.1484     11.2484     11.6390     1.12741    0.294925   0.0749554    -999.250    -999.250    -999.250    -999.250
     41.2450     10.2250     9.89489     11.7268     11.3482     1.16690    0.251447   0.0695837    -999.250    -999.250    -999.250    -999.250
     41.2960     14.2992     9.57751     16.3994     10.9842     1.14457    0.237126   0.0627651    -999.250    -999.250    -999.250    -999.250
     41.3470     5.31627     8.98107     6.09710     10.3002     1.07313    0.251239   0.0565213    -999.250    -999.250    -999.250    -999.250
     41.3980     7.72183     8.56323     8.85600     9.82098    0.990971    0.263578   0.0519524    -999.250    -999.250    -999.250    -999.250
     41.4490     9.37327     8.21481     10.7500     9.42140    0.690733    0.433954   0.0478989    -999.250    -999.250    -999.250    -999.250
     41.5000     7.31139     7.85358     8.38530     9.00711    0.395530    0.599018   0.0447274    -999.250    -999.250    -999.250    -999.250
     41.5510     6.88721     7.59580     7.89880     8.71147    0.327453    0.607195   0.0456987    -999.250    -999.250    -999.250    -999.250
     41.6020     7.23775     7.38534     8.30080     8.47011    0.281923    0.602547   0.0461744    -999.250    -999.250    -999.250    -999.250
     41.6530     7.27737     7.40716     8.34630     8.49514    0.209385    0.643845   0.0442022    -999.250    -999.250    -999.250    -999.250
     41.7040     6.09031     7.40762     6.98490     8.49566    0.119633    0.717046   0.0387710    -999.250    -999.250    -999.250    -999.250
     41.7550     8.93492     7.50852     10.2473     8.61138   0.0616947    0.781377   0.0316253    -999.250    -999.250    -999.250    -999.250
     41.8060     8.53935     7.50764     9.79360     8.61037   0.0712388    0.808830   0.0247473    -999.250    -999.250    -999.250    -999.250
     41.8570     5.25300     7.46172     6.02460     8.55772    0.156313    0.780723   0.0187413    -999.250    -999.250    -999.250    -999.250
     41.9080     8.53817     7.57441     9.79230     8.68695    0.321140    0.710188   0.0136967    -999.250    -999.250    -999.250    -999.250
     41.9590     8.46940     7.60637     9.71340     8.72360    0.520773    0.604212  0.00814668    -999.250    -999.250    -999.250    -999.250
     42.0100     8.07491     7.60858     9.26090     8.72613    0.688721    0.524796  0.00270565    -999.250    -999.250    -999.250    -999.250
     42.0610     4.83241     7.52509     5.54220     8.63037    0.757115    0.491457    0.000000    -999.250    -999.250    -999.250    -999.250
     42.1120     8.14617     7.57038     9.34270     8.68231    0.734321    0.509237  0.00107037    -999.250    -999.250    -999.250    -999.250
     42.1630     9.32822     7.58229     10.6983     8.69596    0.668483    0.516798  0.00540138    -999.250    -999.250    -999.250    -999.250
     42.2140     6.93285     7.42579     7.95110     8.51647    0.658781    0.480485   0.0114866    -999.250    -999.250    -999.250    -999.250
     42.2650     8.59019     7.31186     9.85190     8.38580    0.710971    0.388513   0.0195540    -999.250    -999.250    -999.250    -999.250
     42.3160     6.97425     7.20387     7.99860     8.26196    0.748909    0.310694   0.0273142    -999.250    -999.250    -999.250    -999.250
     42.3670     5.36603     7.14559     6.15420     8.19511    0.743746    0.269574   0.0371556    -999.250    -999.250    -999.250    -999.250
     42.4180     6.55125     7.23719     7.51350     8.30016    0.695946    0.246303   0.0518037    -999.250    -999.250    -999.250    -999.250
     42.4690     7.34066     7.39395     8.41880     8.47996    0.627066    0.242339   0.0721110    -999.250    -999.250    -999.250    -999.250
     42.5200     6.85993     7.66268     7.86750     8.78816    0.555570    0.250287   0.0932110    -999.250    -999.250    -999.250    -999.250
     42.5710     8.92510     7.99155     10.2360     9.16533    0.537869    0.256392    0.112042    -999.250    -999.250    -999.250    -999.250
     42.6220     7.66279     8.27669     8.78830     9.49236    0.567125    0.254043    0.120723    -999.250    -999.250    -999.250    -999.250
     42.6730     11.2956     8.64175     12.9547     9.91104    0.608830    0.284143    0.116164    -999.250    -999.250    -999.250    -999.250
     42.7240     7.30235     8.72954     8.37490     10.0117    0.653092    0.336729    0.101655    -999.250    -999.250    -999.250    -999.250
     42.7750     9.38362     8.87586     10.7619     10.1795    0.677690    0.411090   0.0807532    -999.250    -999.250    -999.250    -999.250
     42.8260     8.95214     8.96381     10.2670     10.2804    0.668642    0.495233   0.0582557    -999.250    -999.250    -999.250    -999.250
     42.8770     7.68587     8.92518     8.81480     10.2361    0.626422    0.576343   0.0400793    -999.250    -999.250    -999.250    -999.250
     42.9280     11.2282     9.00169     12.8773     10.3238    0.561060    0.632735   0.0308127    -999.250    -999.250    -999.250    -999.250
     42.9790     7.24366     8.93948     8.30760     10.2525    0.511308    0.645569   0.0337165    -999.250    -999.250    -999.250    -999.250
     43.0300     10.1603     9.08364     11.6526     10.4178    0.509851    0.594757   0.0479385    -999.250    -999.250    -999.250    -999.250
     43.0810     9.32566     9.04765     10.6954     10.3765    0.563211    0.485748   0.0668285    -999.250    -999.250    -999.250    -999.250
     43.1320     6.48742     8.99225     7.44030     10.3130    0.672388    0.363082   0.0830921    -999.250    -999.250    -999.250    -999.250
