#------------------------------------------------------------
~VERSION INFORMATION
VERS.               2.0  :CWLS LOG ASCII STANDARD - VERSION 2.0
WRAP.                NO  :ONE LINE PER DEPTH STEP
#------------------------------------------------------------
~WELL INFORMATION
STRT.M         0.343000  :FIRST INDEX VALUE
STOP.M          88.9300  :LAST INDEX VALUE
STEP.M        0.0510000  :STEP
NULL.           -999.25  :NULL VALUE
COMP.                    :COMPANY
WELL.                    :WELL
FLD.                     :FIELD
LOC.                     :LOCATION
SRVC.                    :
CTRY. Germany            :COUNTRY
STAT.                    :STATE
CNTY.                    :
DATE.                    :DATE
API.                     :
#------------------------------------------------------------
~CURVE INFORMATION
MD                       :DEPTH
SGRRAW.API               :SGRRaw
SGR.API                  :SGR
SGRRAW_COR.API           :SGRRAW_COR
SGR_COR.API              :SGR_COR
232TH.PPM                :232TH
238U.PPM                 :238U
40K.%                    :40K
GRRAW.API                :GRRaw
GR.API                   :GR
GRRAW_COR.API            :GRRAW_COR
GR_COR.API               :GR_COR
#------------------------------------------------------------
~PARAMETER INFORMATION
001_Bohrungsnummer. 314532  :001_Bohrungsnummer
002_Firma. Geologischer Dienst NRW_Fachbereich 34_Geophysik, Landeserdbebendienst_34.23 Bohrlochgeophysik_De-Greiff-Straße 195_47803 Krefeld  :002_Firma
003_GR.                  :003_GR
004_GR_FEL.         yes  :004_GR_FEL
005_GR_SAL_TEMP.         :005_GR_SAL_TEMP
006_SGR.            yes  :006_SGR
007_CAL3.                :007_CAL3
008_ORI.                 :008_ORI
009_SUSZ.                :009_SUSZ
010_OBI.            yes  :010_OBI
011_STpF.                :011_STpF
012_SAMP.                :012_SAMP
013_Log_Feld.            :013_Log_Feld
014_Log_End.        yes  :014_Log_End
015_Teufenskala.    200  :015_Teufenskala
016_Bohrung. IGL Hastenrath_Albertstraße 57_52249 Eschweiler  :016_Bohrung
017_TK25. 5203 Stolberg (Rheinland)  :017_TK25
018_Land.   Deutschland  :018_Land
019_Koordinaten#1. 32U 307542,00 +/- 5 m  :019_Koordinaten#1
020_Koordinaten#2. UTM 5629294,00 +/- 5 m  :020_Koordinaten#2
021_Koordinaten#3. (UTM 32.Zone ETRS89)  :021_Koordinaten#3
022_Hoehe.       233,00  :022_Hoehe
023_DGPS_Ja.             :023_DGPS_Ja
024_DGPS_Nein.      yes  :024_DGPS_Nein
025_Auftraggeber. Heß, O. (GD NRW)  :025_Auftraggeber
026_Bohrfirma. H. Anger's Söhne_Bohr- und Brunnenbaugesellschaft mbH_Gutenbergstr. 33_37235 Hessisch Lichtenau  :026_Bohrfirma
027_Bohrmeister.   k.A.  :027_Bohrmeister
028_Bohrungsart. Geologische Untersuchung  :028_Bohrungsart
029_Bohrungsverfahren. Kernbohrung  :029_Bohrungsverfahren
030_TeufenBez.      GOK  :030_TeufenBez
031_Messbez.      -1,73  :031_Messbez
032_Bohrbez.        GOK  :032_Bohrbez
033_Bearbeiter.          :033_Bearbeiter
034_Deklination.   1,77  :034_Deklination
100_Stand_ID.       156  :100_Stand_ID
101_Stand_OD.       178  :101_Stand_OD
102_Stand_RL.       1,5  :102_Stand_RL
103_Stand_MA.     Stahl  :103_Stand_MA
104_Stand_vb. -1,02 / 6,12  :104_Stand_vb
105_Stand_MNr.    1 - 3  :105_Stand_MNr
106_StandM_ID.      156  :106_StandM_ID
107_StandM_OD.      178  :107_StandM_OD
108_StandM_RL.     0,11  :108_StandM_RL
109_StandM_MA.    Stahl  :109_StandM_MA
110_StandM_vb. -1,02 / 6,12  :110_StandM_vb
111_StandM_MNr.   1 - 3  :111_StandM_MNr
112_Gest_ID.        126  :112_Gest_ID
113_Gest_OD.        140  :113_Gest_OD
114_Gest_RL.       3,00  :114_Gest_RL
115_Gest_MA.      Stahl  :115_Gest_MA
116_Gest_vb. -1,73 / 90,00  :116_Gest_vb
117_Gest_MNr.         1  :117_Gest_MNr
118_GestM_ID.       126  :118_GestM_ID
119_GestM_OD.       140  :119_GestM_OD
120_GestM_RL.     0,065  :120_GestM_RL
121_GestM_MA.     Stahl  :121_GestM_MA
122_GestM_vb. -1,73 / 90,00  :122_GestM_vb
123_GestM_MNr.        1  :123_GestM_MNr
124_Verr_ID.        ./.  :124_Verr_ID
125_Verr_OD.        ./.  :125_Verr_OD
126_Verr_RL.        ./.  :126_Verr_RL
127_Verr_MA.        ./.  :127_Verr_MA
128_Verr_vb.        ./.  :128_Verr_vb
129_Verr_MNr.       ./.  :129_Verr_MNr
130_oBL_ID.         146  :130_oBL_ID
134_oBL_vb. 6,12 / 90,00  :134_oBL_vb
135_oBL_MNr.      2 - 3  :135_oBL_MNr
136_MeißelA.        PCD  :136_MeißelA
137_MeißelD.        146  :137_MeißelD
138_Sp_Ja.          yes  :138_Sp_Ja
139_Sp_Nein.             :139_Sp_Nein
140_Sp_W.           yes  :140_Sp_W
141_Sp_B.                :141_Sp_B
142_Sp_A.           yes  :142_Sp_A
143_Sp_T.                :143_Sp_T
144_Sp_GW.               :144_Sp_GW
145_Sp_S.                :145_Sp_S
146_SpStop.        k.A.  :146_SpStop
147_SpProbe_Ja.          :147_SpProbe_Ja
148_SpProbe_Nein.   yes  :148_SpProbe_Nein
149_SpProbe_S.           :149_SpProbe_S
150_Dichte.         ./.  :150_Dichte
151_sonstiger_Zusatz. sonstiges  :151_sonstiger_Zusatz
152_sonstige_SPprobe. sonstiges  :152_sonstige_SPprobe
154_VerrM_ID.       ./.  :154_VerrM_ID
155_VerrM_OD.       ./.  :155_VerrM_OD
156_VerrM_RL.       ./.  :156_VerrM_RL
157_VerrM_MA.       ./.  :157_VerrM_MA
158_VerrM_vb.       ./.  :158_VerrM_vb
159_VerrM_MNr.      ./.  :159_VerrM_MNr
200_MessNr#1. 1 aufwärts  :200_MessNr#1
201_Datum#1. 27 Apr 2018  :201_Datum#1
202_Sonde#1.        SGR  :202_Sonde#1
203_RohrÜber#1.   -1,73  :203_RohrÜber#1
204_FlüssigSP#1.  51,04  :204_FlüssigSP#1
205_FlüssigZP#1.   9_45  :205_FlüssigZP#1
206_ErrTiefe#1.   90,00  :206_ErrTiefe#1
207_TiefsterMP#1. 88,93  :207_TiefsterMP#1
208_HöchsterMP#1.  0,34  :208_HöchsterMP#1
209_Messbeginn#1.  9_32  :209_Messbeginn#1
210_MessNr#2. 2 aufwärts  :210_MessNr#2
211_Datum#2. 27 Apr 2018  :211_Datum#2
212_Sonde#2.        OBI  :212_Sonde#2
213_RohrÜber#2.   -1,02  :213_RohrÜber#2
214_FlüssigSP#2.   k.A.  :214_FlüssigSP#2
215_FlüssigZP#2.   k.A.  :215_FlüssigZP#2
216_ErrTiefe#2.   12,50  :216_ErrTiefe#2
217_TiefsterMP#2. 12,43  :217_TiefsterMP#2
218_HöchsterMP#2.  5,44  :218_HöchsterMP#2
219_Messbeginn#2. 12_10  :219_Messbeginn#2
220_MessNr#3. 3 aufwärts  :220_MessNr#3
221_Datum#3. 27 Apr 2018  :221_Datum#3
222_Sonde#3.   GR / FEL  :222_Sonde#3
223_RohrÜber#3.   -1,02  :223_RohrÜber#3
224_FlüssigSP#3.   k.A.  :224_FlüssigSP#3
225_FlüssigZP#3.   k.A.  :225_FlüssigZP#3
226_ErrTiefe#3.   39,06  :226_ErrTiefe#3
227_TiefsterMP#3. 37,99  :227_TiefsterMP#3
228_HöchsterMP#3.  2,80  :228_HöchsterMP#3
229_Messbeginn#3. 12_28  :229_Messbeginn#3
230_MessNr#4.            :230_MessNr#4
231_Datum#4.             :231_Datum#4
232_Sonde#4.             :232_Sonde#4
233_RohrÜber#4.          :233_RohrÜber#4
234_FlüssigSP#4.         :234_FlüssigSP#4
235_FlüssigZP#4.         :235_FlüssigZP#4
236_ErrTiefe#4.          :236_ErrTiefe#4
237_TiefsterMP#4.        :237_TiefsterMP#4
238_HöchsterMP#4.        :238_HöchsterMP#4
239_Messbeginn#4.        :239_Messbeginn#4
240_MessNr#5.            :240_MessNr#5
241_Datum#5.             :241_Datum#5
242_Sonde#5.             :242_Sonde#5
243_RohrÜber#5.          :243_RohrÜber#5
244_FlüssigSP#5.         :244_FlüssigSP#5
245_FlüssigZP#5.         :245_FlüssigZP#5
246_ErrTiefe#5.          :246_ErrTiefe#5
247_TiefsterMP#5.        :247_TiefsterMP#5
248_HöchsterMP#5.        :248_HöchsterMP#5
249_Messbeginn#5.        :249_Messbeginn#5
250_TeufeBM.      90,00  :250_TeufeBM
251_Messwagen. KR-GD 600  :251_Messwagen
252_Messtrupp. Orth / Helbing  :252_Messtrupp
253_Bemerkungen. OBI-Sonde ist bei 12,50 m aufgesetzt._GRFEL-Sonde ist überhalb der Wassersäule bei 39,06 m aufgesetzt, daher keine Wiederstandswerte._Die Stückelung der Schutzverrohrung ist unklar (Überstand 1,02 m gemessen, Ende Schneidschuh 6,12 m ergibt sich durch_OBI)  :253_Bemerkungen
254_Korrekturen. GR_COR / SGR_COR_ Von Bohrlocheinflüssen korrigiertes GR-Log nach (Lehmann, 2010)  :254_Korrekturen
259_Anmerkung. Interpretationen und Beurteilungen der von uns durchgeführten Messungen werden von unserem Personal nach bestem Wissen und Gewissen durchgeführt,_ohne jedoch für die Genauigkeit bzw. Richtigkeit zu garantieren. Ebenso lehnen wir jegliche Haftung oder Verantwortung für irgendwelche Verluste, Kosten oder Schäden ab, die unserem Auftraggeber dadurch entstehen können.  :259_Anmerkung
300_Run#1.            1  :300_Run#1
301_Trip#1.         ./.  :301_Trip#1
302_Gerätedaten#1.  SGR                 LogIn 2901               k.A.                      191 mm  :302_Gerätedaten#1
303_Run#2.            2  :303_Run#2
304_Trip#2.         ./.  :304_Trip#2
305_Gerätedaten#2.  OBI                 ALT QL40-OBI-2G 151105   k.A.                      86.6 mm  :305_Gerätedaten#2
306_Run#3.            3  :306_Run#3
307_Trip#3.         ./.  :307_Trip#3
308_Gerätedaten#3.  GR / FEL            LogIn GaFEL 1125004      05.11.2015 / 22.10.2015   157 / 797 mm  :308_Gerätedaten#3
309_Run#4.               :309_Run#4
310_Trip#4.              :310_Trip#4
311_Gerätedaten#4.       :311_Gerätedaten#4
312_Run#5.               :312_Run#5
313_Trip#5.              :313_Trip#5
314_Gerätedaten#5.       :314_Gerätedaten#5
315_Run#6.               :315_Run#6
316_Trip#6.              :316_Trip#6
317_Gerätedaten#6.       :317_Gerätedaten#6
318_Run#7.               :318_Run#7
319_Trip#7.              :319_Trip#7
320_Gerätedaten#7.       :320_Gerätedaten#7
321_Run#8.               :321_Run#8
322_Trip#8.              :322_Trip#8
323_Gerätedaten#8.       :323_Gerätedaten#8
324_Run#9.               :324_Run#9
325_Trip#9.              :325_Trip#9
326_Gerätedaten#9.       :326_Gerätedaten#9
327_Run#10.              :327_Run#10
328_Trip#10.             :328_Trip#10
329_Gerätedaten#10.      :329_Gerätedaten#10
330_Gerätedaten#0.  GERÄT               SONDEN NR.               LETZTE KALIBRIERUNG       ABSTAND TIEFSTER MESSPUNKT  :330_Gerätedaten#0
#------------------------------------------------------------
~OTHER
#------------------------------------------------------------
~A   MD      SGRRAW         SGR  SGRRAW_COR     SGR_COR       232TH        238U         40K       GRRAW          GR   GRRAW_COR      GR_COR
# ...
     23.1910     26.0211     24.7287     29.8431     28.3609     1.05646     2.00096    0.133419     27.5488     28.9543     25.5243     26.8266
     23.2420     29.6518     25.5796     34.0070     29.3367     1.14258     1.86642    0.172418     27.6049     30.5034     25.5764     28.2619
     23.2930     24.0943     26.2481     27.6333     30.1034     1.29519     1.71541    0.210307     34.4639     32.4244     31.9314     30.0417
     23.3440     24.7775     26.7530     28.4168     30.6825     1.46612     1.57093    0.231516     36.2069     33.8034     33.5462     31.3194
     23.3950     24.5146     27.4512     28.1153     31.4833     1.59471     1.49916    0.230614     35.4760     34.6358     32.8691     32.0906
     23.4460     34.3698     28.0906     39.4181     32.2166     1.63474     1.53283    0.213944     32.8336     35.1012     30.4209     32.5218
     23.4970     31.7870     28.1456     36.4559     32.2797     1.56439     1.62182    0.193895     40.0861     35.8539     37.1404     33.2192
     23.5480     28.4598     28.0046     32.6400     32.1179     1.43566     1.73280    0.187780     44.4715     36.2756     41.2035     33.6099
     23.5990     24.5614     28.1804     28.1689     32.3195     1.25349     1.82147    0.196977     27.2117     35.9445     25.2120     33.3031
     23.6500     26.6036     28.4612     30.5111     32.6415     1.03793     1.92911    0.214628     32.4400     36.3396     30.0561     33.6692
     23.7010     26.0866     28.7641     29.9182     32.9889    0.802457     2.08790    0.229118     33.4520     37.0315     30.9938     34.3102
     23.7520     27.9119     29.0246     32.0115     33.2877    0.597016     2.31109    0.238573     43.5718     37.9123     40.3699     35.1263
     23.8030     30.4930     29.4347     34.9718     33.7581    0.430822     2.48683    0.233974     40.7047     38.3933     37.7135     35.5720
     23.8540     38.6770     29.7563     44.3579     34.1269    0.308642     2.63298    0.218553     34.2392     38.8181     31.7231     35.9655
     23.9050     28.8059     29.6264     33.0369     33.9779    0.225054     2.75903    0.197641     46.1018     39.5943     42.7139     36.6847
     23.9560     29.2258     29.6125     33.5185     33.9620    0.188147     2.82329    0.176551     39.3554     39.8785     36.4634     36.9480
     24.0070     26.1328     29.7338     29.9711     34.1011    0.201685     2.85623    0.164133     38.2309     40.2080     35.4215     37.2533
     24.0580     26.8419     30.1019     30.7844     34.5232    0.234212     2.86623    0.161982     39.9175     41.0217     36.9842     38.0072
     24.1090     26.0089     30.8688     29.8290     35.4028    0.244301     2.92436    0.170287     39.2991     42.1321     36.4112     39.0360
     24.1600     32.6410     31.8097     37.4352     36.4819    0.223687     3.05109    0.186888     36.6567     43.4143     33.9630     40.2239
     24.2110     37.2293     33.1905     42.6975     38.0654    0.216224     3.19805    0.210059     47.2829     45.1838     43.8083     41.8634
     24.2620     36.7134     34.4327     42.1059     39.4901    0.272755     3.21860    0.233518     47.9011     46.8985     44.3810     43.4521
     24.3130     35.0624     35.3921     40.2123     40.5904    0.433032     3.13514    0.260158     60.4384     48.1526     55.9970     44.6141
     24.3640     40.1299     35.9808     46.0241     41.2656    0.705738     2.91279    0.284767     46.9454     48.2463     43.4956     44.7009
     24.4150     27.7901     35.8182     31.8719     41.0791     1.07818     2.58461    0.302844     44.0780     48.2869     40.8390     44.7385
     24.4660     42.4375     35.6614     48.6706     40.8993     1.51457     2.19221    0.309435     56.6153     48.2932     52.4548     44.7443
     24.5170     40.6652     34.8295     46.6381     39.9452     1.95472     1.79547    0.302676     46.4956     47.2390     43.0788     43.7676
     24.5680     34.0208     33.5041     39.0178     38.4252     2.32379     1.47998    0.285580     39.8616     45.9272     36.9324     42.5522
     24.6190     30.6470     32.0293     35.1484     36.7338     2.55230     1.30693    0.256462     40.8733     44.7636     37.8697     41.4742
     24.6700     26.3696     30.5610     30.2428     35.0498     2.62579     1.29083    0.215481     52.0614     43.9498     48.2356     40.7203
     24.7210     29.7836     29.4216     34.1582     33.7431     2.54369     1.39700    0.163657     47.6202     42.3835     44.1209     39.2690
     24.7720     27.9263     28.2528     32.0281     32.4025     2.34190     1.62926    0.108474     38.3997     40.6875     35.5778     37.6976
     24.8230     26.3377     27.4183     30.2061     31.4454     2.10610     1.93304   0.0590287     36.4318     39.6208     33.7546     36.7093
     24.8740     25.9491     27.1908     29.7605     31.1845     1.98419     2.14609   0.0252824     37.1626     39.0602     34.4317     36.1898
     24.9250     26.4664     27.6444     30.3537     31.7048     2.00737     2.25594   0.0110406     33.9019     38.9305     31.4106     36.0697
     24.9760     24.4481     28.5440     28.0390     32.7365     2.11108     2.28376   0.0151338     30.0787     38.9914     27.8684     36.1261
     25.0270     30.7183     29.8426     35.2301     34.2258     2.27737     2.30187   0.0346283     46.4953     40.2189     43.0786     37.2634
     25.0780     25.4499     31.1338     29.1880     35.7067     2.44826     2.27560   0.0648761     42.8412     41.3652     39.6930     38.3255
     25.1290     33.8637     32.7614     38.8376     37.5734     2.62993     2.21165    0.100059     44.5839     42.6677     41.3076     39.5323
     25.1800     42.3972     34.1849     48.6245     39.2059     2.77690     2.10701    0.133459     49.9812     43.8546     46.3084     40.6319
     25.2310     38.3404     35.1247     43.9718     40.2837     2.86369     2.01467    0.165352     33.7896     44.5543     31.3066     41.2802
     25.2820     36.8921     35.7725     42.3108     41.0267     2.86621     1.98359    0.203756     50.0935     45.9645     46.4123     42.5868
     25.3330     31.3844     36.1084     35.9941     41.4119     2.68323     2.00005    0.248503     42.4476     47.0796     39.3284     43.6199
     25.3840     35.0866     36.9409     40.2401     42.3667     2.36705     2.10277    0.296620     52.9046     49.0317     49.0169     45.4286
     25.4350     34.0403     37.7800     39.0401     43.3291     2.02562     2.24861    0.341258     48.5758     51.1260     45.0061     47.3690
     25.4860     41.4312     38.9595     47.5166     44.6818     1.81241     2.39367    0.387165     45.2586     53.3639     41.9328     49.4425
     25.5370     39.7049     40.4918     45.5368     46.4393     1.73762     2.41488    0.427591     59.2577     56.4873     54.9031     52.3363
     25.5880     38.1059     42.2724     43.7028     48.4813     1.84883     2.35669    0.474767     59.4828     59.3515     55.1117     54.9901
     25.6390     49.9292     44.3270     57.2627     50.8377     2.04313     2.22619    0.518245     68.5344     62.4937     63.4981     57.9014
     25.6900     44.9614     46.0533     51.5654     52.8176     2.23963     2.14003    0.560128     68.0847     65.0940     63.0815     60.3105
     25.7410     46.4689     47.7581     53.2942     54.7728     2.37288     2.12146    0.594559     57.7400     66.9837     53.4970     62.0614
     25.7920     53.1709     49.1389     60.9806     56.3563     2.43729     2.12755    0.614757     72.4136     68.8359     67.0923     63.7775
     25.8430     50.0035     49.9372     57.3480     57.2720     2.48301     2.13306    0.624618     75.3935     69.7105     69.8532     64.5878
     25.8940     49.1835     50.5925     56.4075     58.0235     2.53349     2.13655    0.633498     78.8793     69.2358     73.0828     64.1480
     25.9450     56.6571     50.5202     64.9789     57.9405     2.54644     2.12722    0.646521     75.1125     67.7319     69.5928     62.7546
     25.9960     54.0624     49.9628     62.0030     57.3013     2.44275     2.08874    0.658027     57.6838     65.3159     53.4449     60.5162
