#------------------------------------------------------------
~VERSION INFORMATION
VERS.               2.0  :CWLS LOG ASCII STANDARD - VERSION 2.0
WRAP.                NO  :ONE LINE PER DEPTH STEP
#------------------------------------------------------------
~WELL INFORMATION
STRT.M         0.343000  :FIRST INDEX VALUE
STOP.M          88.9300  :LAST INDEX VALUE
STEP.M        0.0510000  :STEP
NULL.           -999.25  :NULL VALUE
COMP.                    :COMPANY
WELL.                    :WELL
FLD.                     :FIELD
LOC.                     :LOCATION
SRVC.                    :
CTRY. Germany            :COUNTRY
STAT.                    :STATE
CNTY.                    :
DATE.                    :DATE
API.                     :
#------------------------------------------------------------
~CURVE INFORMATION
MD                       :DEPTH
SGRRAW.API               :SGRRaw
SGR.API                  :SGR
SGRRAW_COR.API           :SGRRAW_COR
SGR_COR.API              :SGR_COR
232TH.PPM                :232TH
238U.PPM                 :238U
40K.%                    :40K
GRRAW.API                :GRRaw
GR.API                   :GR
GRRAW_COR.API            :GRRAW_COR
GR_COR.API               :GR_COR
#------------------------------------------------------------
~PARAMETER INFORMATION
001_Bohrungsnummer. 314532  :001_Bohrungsnummer
002_Firma. Geologischer Dienst NRW_Fachbereich 34_Geophysik, Landeserdbebendienst_34.23 Bohrlochgeophysik_De-Greiff-Straße 195_47803 Krefeld  :002_Firma
003_GR.                  :003_GR
004_GR_FEL.         yes  :004_GR_FEL
005_GR_SAL_TEMP.         :005_GR_SAL_TEMP
006_SGR.            yes  :006_SGR
007_CAL3.                :007_CAL3
008_ORI.                 :008_ORI
009_SUSZ.                :009_SUSZ
010_OBI.            yes  :010_OBI
011_STpF.                :011_STpF
012_SAMP.                :012_SAMP
013_Log_Feld.            :013_Log_Feld
014_Log_End.        yes  :014_Log_End
015_Teufenskala.    200  :015_Teufenskala
016_Bohrung. IGL Hastenrath_Albertstraße 57_52249 Eschweiler  :016_Bohrung
017_TK25. 5203 Stolberg (Rheinland)  :017_TK25
018_Land.   Deutschland  :018_Land
019_Koordinaten#1. 32U 307542,00 +/- 5 m  :019_Koordinaten#1
020_Koordinaten#2. UTM 5629294,00 +/- 5 m  :020_Koordinaten#2
021_Koordinaten#3. (UTM 32.Zone ETRS89)  :021_Koordinaten#3
022_Hoehe.       233,00  :022_Hoehe
023_DGPS_Ja.             :023_DGPS_Ja
024_DGPS_Nein.      yes  :024_DGPS_Nein
025_Auftraggeber. Heß, O. (GD NRW)  :025_Auftraggeber
026_Bohrfirma. H. Anger's Söhne_Bohr- und Brunnenbaugesellschaft mbH_Gutenbergstr. 33_37235 Hessisch Lichtenau  :026_Bohrfirma
027_Bohrmeister.   k.A.  :027_Bohrmeister
028_Bohrungsart. Geologische Untersuchung  :028_Bohrungsart
029_Bohrungsverfahren. Kernbohrung  :029_Bohrungsverfahren
030_TeufenBez.      GOK  :030_TeufenBez
031_Messbez.      -1,73  :031_Messbez
032_Bohrbez.        GOK  :032_Bohrbez
033_Bearbeiter.          :033_Bearbeiter
034_Deklination.   1,77  :034_Deklination
100_Stand_ID.       156  :100_Stand_ID
101_Stand_OD.       178  :101_Stand_OD
102_Stand_RL.       1,5  :102_Stand_RL
103_Stand_MA.     Stahl  :103_Stand_MA
104_Stand_vb. -1,02 / 6,12  :104_Stand_vb
105_Stand_MNr.    1 - 3  :105_Stand_MNr
106_StandM_ID.      156  :106_StandM_ID
107_StandM_OD.      178  :107_StandM_OD
108_StandM_RL.     0,11  :108_StandM_RL
109_StandM_MA.    Stahl  :109_StandM_MA
110_StandM_vb. -1,02 / 6,12  :110_StandM_vb
111_StandM_MNr.   1 - 3  :111_StandM_MNr
112_Gest_ID.        126  :112_Gest_ID
113_Gest_OD.        140  :113_Gest_OD
114_Gest_RL.       3,00  :114_Gest_RL
115_Gest_MA.      Stahl  :115_Gest_MA
116_Gest_vb. -1,73 / 90,00  :116_Gest_vb
117_Gest_MNr.         1  :117_Gest_MNr
118_GestM_ID.       126  :118_GestM_ID
119_GestM_OD.       140  :119_GestM_OD
120_GestM_RL.     0,065  :120_GestM_RL
121_GestM_MA.     Stahl  :121_GestM_MA
122_GestM_vb. -1,73 / 90,00  :122_GestM_vb
123_GestM_MNr.        1  :123_GestM_MNr
124_Verr_ID.        ./.  :124_Verr_ID
125_Verr_OD.        ./.  :125_Verr_OD
126_Verr_RL.        ./.  :126_Verr_RL
127_Verr_MA.        ./.  :127_Verr_MA
128_Verr_vb.        ./.  :128_Verr_vb
129_Verr_MNr.       ./.  :129_Verr_MNr
130_oBL_ID.         146  :130_oBL_ID
134_oBL_vb. 6,12 / 90,00  :134_oBL_vb
135_oBL_MNr.      2 - 3  :135_oBL_MNr
136_MeißelA.        PCD  :136_MeißelA
137_MeißelD.        146  :137_MeißelD
138_Sp_Ja.          yes  :138_Sp_Ja
139_Sp_Nein.             :139_Sp_Nein
140_Sp_W.           yes  :140_Sp_W
141_Sp_B.                :141_Sp_B
142_Sp_A.           yes  :142_Sp_A
143_Sp_T.                :143_Sp_T
144_Sp_GW.               :144_Sp_GW
145_Sp_S.                :145_Sp_S
146_SpStop.        k.A.  :146_SpStop
147_SpProbe_Ja.          :147_SpProbe_Ja
148_SpProbe_Nein.   yes  :148_SpProbe_Nein
149_SpProbe_S.           :149_SpProbe_S
150_Dichte.         ./.  :150_Dichte
151_sonstiger_Zusatz. sonstiges  :151_sonstiger_Zusatz
152_sonstige_SPprobe. sonstiges  :152_sonstige_SPprobe
154_VerrM_ID.       ./.  :154_VerrM_ID
155_VerrM_OD.       ./.  :155_VerrM_OD
156_VerrM_RL.       ./.  :156_VerrM_RL
157_VerrM_MA.       ./.  :157_VerrM_MA
158_VerrM_vb.       ./.  :158_VerrM_vb
159_VerrM_MNr.      ./.  :159_VerrM_MNr
200_MessNr#1. 1 aufwärts  :200_MessNr#1
201_Datum#1. 27 Apr 2018  :201_Datum#1
202_Sonde#1.        SGR  :202_Sonde#1
203_RohrÜber#1.   -1,73  :203_RohrÜber#1
204_FlüssigSP#1.  51,04  :204_FlüssigSP#1
205_FlüssigZP#1.   9_45  :205_FlüssigZP#1
206_ErrTiefe#1.   90,00  :206_ErrTiefe#1
207_TiefsterMP#1. 88,93  :207_TiefsterMP#1
208_HöchsterMP#1.  0,34  :208_HöchsterMP#1
209_Messbeginn#1.  9_32  :209_Messbeginn#1
210_MessNr#2. 2 aufwärts  :210_MessNr#2
211_Datum#2. 27 Apr 2018  :211_Datum#2
212_Sonde#2.        OBI  :212_Sonde#2
213_RohrÜber#2.   -1,02  :213_RohrÜber#2
214_FlüssigSP#2.   k.A.  :214_FlüssigSP#2
215_FlüssigZP#2.   k.A.  :215_FlüssigZP#2
216_ErrTiefe#2.   12,50  :216_ErrTiefe#2
217_TiefsterMP#2. 12,43  :217_TiefsterMP#2
218_HöchsterMP#2.  5,44  :218_HöchsterMP#2
219_Messbeginn#2. 12_10  :219_Messbeginn#2
220_MessNr#3. 3 aufwärts  :220_MessNr#3
221_Datum#3. 27 Apr 2018  :221_Datum#3
222_Sonde#3.   GR / FEL  :222_Sonde#3
223_RohrÜber#3.   -1,02  :223_RohrÜber#3
224_FlüssigSP#3.   k.A.  :224_FlüssigSP#3
225_FlüssigZP#3.   k.A.  :225_FlüssigZP#3
226_ErrTiefe#3.   39,06  :226_ErrTiefe#3
227_TiefsterMP#3. 37,99  :227_TiefsterMP#3
228_HöchsterMP#3.  2,80  :228_HöchsterMP#3
229_Messbeginn#3. 12_28  :229_Messbeginn#3
230_MessNr#4.            :230_MessNr#4
231_Datum#4.             :231_Datum#4
232_Sonde#4.             :232_Sonde#4
233_RohrÜber#4.          :233_RohrÜber#4
234_FlüssigSP#4.         :234_FlüssigSP#4
235_FlüssigZP#4.         :235_FlüssigZP#4
236_ErrTiefe#4.          :236_ErrTiefe#4
237_TiefsterMP#4.        :237_TiefsterMP#4
238_HöchsterMP#4.        :238_HöchsterMP#4
239_Messbeginn#4.        :239_Messbeginn#4
240_MessNr#5.            :240_MessNr#5
241_Datum#5.             :241_Datum#5
242_Sonde#5.             :242_Sonde#5
243_RohrÜber#5.          :243_RohrÜber#5
244_FlüssigSP#5.         :244_FlüssigSP#5
245_FlüssigZP#5.         :245_FlüssigZP#5
246_ErrTiefe#5.          :246_ErrTiefe#5
247_TiefsterMP#5.        :247_TiefsterMP#5
248_HöchsterMP#5.        :248_HöchsterMP#5
249_Messbeginn#5.        :249_Messbeginn#5
250_TeufeBM.      90,00  :250_TeufeBM
251_Messwagen. KR-GD 600  :251_Messwagen
252_Messtrupp. Orth / Helbing  :252_Messtrupp
253_Bemerkungen. OBI-Sonde ist bei 12,50 m aufgesetzt._GRFEL-Sonde ist überhalb der Wassersäule bei 39,06 m aufgesetzt, daher keine Wiederstandswerte._Die Stückelung der Schutzverrohrung ist unklar (Überstand 1,02 m gemessen, Ende Schneidschuh 6,12 m ergibt sich durch_OBI)  :253_Bemerkungen
254_Korrekturen. GR_COR / SGR_COR_ Von Bohrlocheinflüssen korrigiertes GR-Log nach (Lehmann, 2010)  :254_Korrekturen
259_Anmerkung. Interpretationen und Beurteilungen der von uns durchgeführten Messungen werden von unserem Personal nach bestem Wissen und Gewissen durchgeführt,_ohne jedoch für die Genauigkeit bzw. Richtigkeit zu garantieren. Ebenso lehnen wir jegliche Haftung oder Verantwortung für irgendwelche Verluste, Kosten oder Schäden ab, die unserem Auftraggeber dadurch entstehen können.  :259_Anmerkung
300_Run#1.            1  :300_Run#1
301_Trip#1.         ./.  :301_Trip#1
302_Gerätedaten#1.  SGR                 LogIn 2901               k.A.                      191 mm  :302_Gerätedaten#1
303_Run#2.            2  :303_Run#2
304_Trip#2.         ./.  :304_Trip#2
305_Gerätedaten#2.  OBI                 ALT QL40-OBI-2G 151105   k.A.                      86.6 mm  :305_Gerätedaten#2
306_Run#3.            3  :306_Run#3
307_Trip#3.         ./.  :307_Trip#3
308_Gerätedaten#3.  GR / FEL            LogIn GaFEL 1125004      05.11.2015 / 22.10.2015   157 / 797 mm  :308_Gerätedaten#3
309_Run#4.               :309_Run#4
310_Trip#4.              :310_Trip#4
311_Gerätedaten#4.       :311_Gerätedaten#4
312_Run#5.               :312_Run#5
313_Trip#5.              :313_Trip#5
314_Gerätedaten#5.       :314_Gerätedaten#5
315_Run#6.               :315_Run#6
316_Trip#6.              :316_Trip#6
317_Gerätedaten#6.       :317_Gerätedaten#6
318_Run#7.               :318_Run#7
319_Trip#7.              :319_Trip#7
320_Gerätedaten#7.       :320_Gerätedaten#7
321_Run#8.               :321_Run#8
322_Trip#8.              :322_Trip#8
323_Gerätedaten#8.       :323_Gerätedaten#8
324_Run#9.               :324_Run#9
325_Trip#9.              :325_Trip#9
326_Gerätedaten#9.       :326_Gerätedaten#9
327_Run#10.              :327_Run#10
328_Trip#10.             :328_Trip#10
329_Gerätedaten#10.      :329_Gerätedaten#10
330_Gerätedaten#0.  GERÄT               SONDEN NR.               LETZTE KALIBRIERUNG       ABSTAND TIEFSTER MESSPUNKT  :330_Gerätedaten#0
#------------------------------------------------------------
~OTHER
#------------------------------------------------------------
~A   MD      SGRRAW         SGR  SGRRAW_COR     SGR_COR       232TH        238U         40K       GRRAW          GR   GRRAW_COR      GR_COR
# ...
     17.4790     15.9128     16.4616     18.2500     18.8794     1.46485    0.225956    0.218147     19.2279     20.5241     17.8149     19.0159
     17.5300     17.5182     16.4430     20.0913     18.8581     1.37111    0.284628    0.207770     19.1154     20.9239     17.7107     19.3863
     17.5810     14.4049     16.3713     16.5207     18.7758     1.19794    0.396709    0.200614     17.4288     21.3253     16.1481     19.7582
     17.6320     16.8445     16.5173     19.3186     18.9434    0.961318    0.564559    0.195322     29.0104     21.9812     26.8786     20.3659
     17.6830     14.0983     16.8122     16.1691     19.2816    0.701992    0.794509    0.189415     23.8382     22.2732     22.0864     20.6365
     17.7340     14.9960     17.3356     17.1986     19.8819    0.459019     1.07430    0.180476     22.0952     22.4185     20.4716     20.7711
     17.7850     19.1488     18.2305     21.9613     20.9082    0.281655     1.35109    0.170575     22.8261     22.6449     21.1487     20.9809
     17.8360     18.2684     18.9830     20.9517     21.7712    0.220129     1.54158    0.163211     17.0353     22.9776     15.7834     21.2891
     17.8870     22.4899     19.9122     25.7932     22.8369    0.293667     1.60622    0.159455     24.6813     23.6038     22.8673     21.8693
     17.9380     22.3465     20.5599     25.6287     23.5797    0.482953     1.61155    0.159752     25.8058     24.0801     23.9095     22.3106
     17.9890     21.0928     21.1258     24.1909     24.2287    0.704955     1.55627    0.155282     21.5893     24.6486     20.0027     22.8373
     18.0400     22.6438     21.5106     25.9697     24.6701    0.861823     1.52312    0.151011     26.9300     25.3966     24.9510     23.5304
     18.0910     17.2596     21.7005     19.7947     24.8879    0.886759     1.53480    0.153191     30.2473     26.2603     28.0246     24.3306
     18.1420     25.3805     22.1241     29.1083     25.3737    0.816105     1.59306    0.166482     25.5248     26.7382     23.6491     24.7733
     18.1930     20.4374     22.4025     23.4392     25.6929    0.724796     1.62354    0.181665     26.5366     27.3504     24.5866     25.3405
     18.2440     24.9063     22.7695     28.5645     26.1139    0.725460     1.61791    0.192002     25.9183     28.3389     24.0137     26.2565
     18.2950     21.5694     23.1394     24.7375     26.5381    0.855292     1.53507    0.189881     25.8058     29.3509     23.9095     27.1941
     18.3460     23.2741     23.5333     26.6926     26.9899     1.12081     1.39967    0.182616     35.9253     30.3832     33.2852     28.1505
     18.3970     23.7820     23.8538     27.2751     27.3575     1.45930     1.20396    0.177146     23.7821     30.8330     22.0345     28.5672
     18.4480     27.2647     24.0516     31.2693     27.5843     1.76117    0.971595    0.180446     38.8492     31.4624     35.9943     29.1504
     18.4990     21.5781     24.0861     24.7475     27.6238     1.95460    0.766144    0.197710     41.9415     31.3765     38.8594     29.0708
     18.5500     27.5683     24.0049     31.6176     27.5308     1.97318    0.658434    0.222577     26.8743     30.4410     24.9000     28.2041
     18.6010     22.9102     23.7588     26.2752     27.2485     1.86410    0.639782    0.249772     30.7533     29.2885     28.4934     27.1362
     18.6520     21.2619     23.2991     24.3849     26.7212     1.64895    0.681070    0.270168     23.9506     27.9329     22.1906     25.8803
     18.7030     25.8857     22.8103     29.6878     26.1606     1.41951    0.754915    0.285827     23.7819     26.9975     22.0342     25.0135
     18.7540     23.2710     22.0768     26.6890     25.3194     1.20571    0.795113    0.289861     26.4243     25.9339     24.4824     24.0281
     18.8050     18.5571     21.4063     21.2827     24.5505     1.09583    0.807799    0.290139     26.7616     24.8220     24.7950     22.9979
     18.8560     24.2911     20.8520     27.8590     23.9147     1.08348    0.800673    0.279950     20.0154     24.0115     18.5445     22.2470
     18.9070     16.5581     20.2258     18.9901     23.1965     1.13688    0.800376    0.259286     28.3919     23.4992     26.3055     21.7723
     18.9580     18.2059     19.9594     20.8800     22.8910     1.20319    0.834717    0.237601     27.0990     23.3258     25.1076     21.6117
     19.0090     19.1805     19.7820     21.9977     22.6876     1.21048    0.918959    0.222735     19.1721     23.0057     17.7632     21.3151
     19.0600     21.5458     19.8489     24.7104     22.7642     1.09256     1.04000    0.213360     12.2565     22.9885     11.3558     21.2992
     19.1110     19.7162     19.9995     22.6121     22.9370    0.861030     1.19478    0.210357     22.4324     24.1161     20.7840     22.3439
     19.1620     18.4287     20.0986     21.1355     23.0507    0.650545     1.32207    0.214856     23.8943     25.5309     22.1384     23.6548
     19.2130     23.1577     20.5004     26.5591     23.5115    0.561060     1.36430    0.222101     38.2307     26.8944     35.4213     24.9180
     19.2640     18.3541     20.8775     21.0499     23.9440    0.611922     1.32540    0.229187     24.9627     27.8033     23.1283     25.7602
     19.3150     21.2677     21.3951     24.3915     24.5376    0.745976     1.25843    0.234668     25.4685     28.8403     23.5969     26.7209
     19.3660     22.8356     21.7289     26.1897     24.9204    0.856580     1.21097    0.234717     39.2989     29.6914     36.4110     27.5095
     19.4170     19.0229     21.9799     21.8169     25.2083    0.881298     1.24950    0.234598     28.4484     29.3431     26.3578     27.1869
     19.4680     23.4621     22.2124     26.9082     25.4749    0.791803     1.33838    0.229118     25.9183     28.5810     24.0137     26.4808
     19.5190     28.8685     22.1789     33.1087     25.4365    0.763112     1.34897    0.219237     31.7091     27.4332     29.3787     25.4173
     19.5700     23.5602     21.4970     27.0207     24.6544    0.616303     1.42172    0.203746     27.4363     26.0979     25.4202     24.1801
     19.6210     16.7355     20.3546     19.1936     23.3443    0.596600     1.37243    0.185748     25.0750     24.4862     23.2324     22.6868
     19.6720     21.1471     19.1880     24.2531     22.0063    0.727898     1.18315    0.168335     23.1635     22.5356     21.4613     20.8797
     19.7230     17.6634     17.8748     20.2578     20.5003    0.992249    0.875896    0.154172     19.5653     20.7553     18.1275     19.2301
     19.7740     18.9192     16.4332     21.6980     18.8469     1.33341    0.501496    0.143191     14.0555     19.4013     13.0226     17.9755
     19.8250     11.2373     15.1135     12.8878     17.3333     1.67488    0.145233    0.135471     18.4405     18.6860     17.0854     17.3129
     19.8760     12.1890     14.4353     13.9793     16.5555     1.96261    0.000000    0.113826     19.9588     18.5173     18.4921     17.1566
     19.9270     11.3297     14.1825     12.9937     16.2656     2.11441    0.000000   0.0924776     12.4813     18.8562     11.5642     17.4706
     19.9780     14.1854     14.3320     16.2689     16.4371     2.20702    0.000000   0.0965213     13.1558     19.9103     12.1891     18.4472
     20.0290     11.6767     14.9036     13.3918     17.0926     1.38079    0.466085    0.129088     26.0306     21.6610     24.1177     20.0693
     20.0800     18.7672     15.9414     21.5237     18.2828     1.13692    0.778037    0.134698     25.1874     23.0713     23.3366     21.3759
     20.1310     16.6996     16.8629     19.1525     19.3397     1.05287    0.960832    0.141090     24.8501     24.0973     23.0240     22.3265
     20.1820     16.1322     17.8156     18.5017     20.4323     1.04133     1.06460    0.147076     30.7533     25.0796     28.4934     23.2367
     20.2330     20.4070     18.8318     23.4043     21.5978     1.05995     1.12626    0.152260     25.6372     25.7574     23.7533     23.8646
     20.2840     22.4168     19.5556     25.7093     22.4279     1.06668     1.19707    0.153647     28.2234     26.1838     26.1494     24.2597
