#------------------------------------------------------------
~VERSION INFORMATION
VERS.               2.0  :CWLS LOG ASCII STANDARD - VERSION 2.0
WRAP.                NO  :ONE LINE PER DEPTH STEP
#------------------------------------------------------------
~WELL INFORMATION
STRT.M         0.343000  :FIRST INDEX VALUE
STOP.M          88.9300  :LAST INDEX VALUE
STEP.M        0.0510000  :STEP
NULL.           -999.25  :NULL VALUE
COMP.                    :COMPANY
WELL.                    :WELL
FLD.                     :FIELD
LOC.                     :LOCATION
SRVC.                    :
CTRY. Germany            :COUNTRY
STAT.                    :STATE
CNTY.                    :
DATE.                    :DATE
API.                     :
#------------------------------------------------------------
~CURVE INFORMATION
MD                       :DEPTH
SGRRAW.API               :SGRRaw
SGR.API                  :SGR
SGRRAW_COR.API           :SGRRAW_COR
SGR_COR.API              :SGR_COR
232TH.PPM                :232TH
238U.PPM                 :238U
40K.%                    :40K
GRRAW.API                :GRRaw
GR.API                   :GR
GRRAW_COR.API            :GRRAW_COR
GR_COR.API               :GR_COR
#------------------------------------------------------------
~PARAMETER INFORMATION
001_Bohrungsnummer. 314532  :001_Bohrungsnummer
002_Firma. Geologischer Dienst NRW_Fachbereich 34_Geophysik, Landeserdbebendienst_34.23 Bohrlochgeophysik_De-Greiff-Straße 195_47803 Krefeld  :002_Firma
003_GR.                  :003_GR
004_GR_FEL.         yes  :004_GR_FEL
005_GR_SAL_TEMP.         :005_GR_SAL_TEMP
006_SGR.            yes  :006_SGR
007_CAL3.                :007_CAL3
008_ORI.                 :008_ORI
009_SUSZ.                :009_SUSZ
010_OBI.            yes  :010_OBI
011_STpF.                :011_STpF
012_SAMP.                :012_SAMP
013_Log_Feld.            :013_Log_Feld
014_Log_End.        yes  :014_Log_End
015_Teufenskala.    200  :015_Teufenskala
016_Bohrung. IGL Hastenrath_Albertstraße 57_52249 Eschweiler  :016_Bohrung
017_TK25. 5203 Stolberg (Rheinland)  :017_TK25
018_Land.   Deutschland  :018_Land
019_Koordinaten#1. 32U 307542,00 +/- 5 m  :019_Koordinaten#1
020_Koordinaten#2. UTM 5629294,00 +/- 5 m  :020_Koordinaten#2
021_Koordinaten#3. (UTM 32.Zone ETRS89)  :021_Koordinaten#3
022_Hoehe.       233,00  :022_Hoehe
023_DGPS_Ja.             :023_DGPS_Ja
024_DGPS_Nein.      yes  :024_DGPS_Nein
025_Auftraggeber. Heß, O. (GD NRW)  :025_Auftraggeber
026_Bohrfirma. H. Anger's Söhne_Bohr- und Brunnenbaugesellschaft mbH_Gutenbergstr. 33_37235 Hessisch Lichtenau  :026_Bohrfirma
027_Bohrmeister.   k.A.  :027_Bohrmeister
028_Bohrungsart. Geologische Untersuchung  :028_Bohrungsart
029_Bohrungsverfahren. Kernbohrung  :029_Bohrungsverfahren
030_TeufenBez.      GOK  :030_TeufenBez
031_Messbez.      -1,73  :031_Messbez
032_Bohrbez.        GOK  :032_Bohrbez
033_Bearbeiter.          :033_Bearbeiter
034_Deklination.   1,77  :034_Deklination
100_Stand_ID.       156  :100_Stand_ID
101_Stand_OD.       178  :101_Stand_OD
102_Stand_RL.       1,5  :102_Stand_RL
103_Stand_MA.     Stahl  :103_Stand_MA
104_Stand_vb. -1,02 / 6,12  :104_Stand_vb
105_Stand_MNr.    1 - 3  :105_Stand_MNr
106_StandM_ID.      156  :106_StandM_ID
107_StandM_OD.      178  :107_StandM_OD
108_StandM_RL.     0,11  :108_StandM_RL
109_StandM_MA.    Stahl  :109_StandM_MA
110_StandM_vb. -1,02 / 6,12  :110_StandM_vb
111_StandM_MNr.   1 - 3  :111_StandM_MNr
112_Gest_ID.        126  :112_Gest_ID
113_Gest_OD.        140  :113_Gest_OD
114_Gest_RL.       3,00  :114_Gest_RL
115_Gest_MA.      Stahl  :115_Gest_MA
116_Gest_vb. -1,73 / 90,00  :116_Gest_vb
117_Gest_MNr.         1  :117_Gest_MNr
118_GestM_ID.       126  :118_GestM_ID
119_GestM_OD.       140  :119_GestM_OD
120_GestM_RL.     0,065  :120_GestM_RL
121_GestM_MA.     Stahl  :121_GestM_MA
122_GestM_vb. -1,73 / 90,00  :122_GestM_vb
123_GestM_MNr.        1  :123_GestM_MNr
124_Verr_ID.        ./.  :124_Verr_ID
125_Verr_OD.        ./.  :125_Verr_OD
126_Verr_RL.        ./.  :126_Verr_RL
127_Verr_MA.        ./.  :127_Verr_MA
128_Verr_vb.        ./.  :128_Verr_vb
129_Verr_MNr.       ./.  :129_Verr_MNr
130_oBL_ID.         146  :130_oBL_ID
134_oBL_vb. 6,12 / 90,00  :134_oBL_vb
135_oBL_MNr.      2 - 3  :135_oBL_MNr
136_MeißelA.        PCD  :136_MeißelA
137_MeißelD.        146  :137_MeißelD
138_Sp_Ja.          yes  :138_Sp_Ja
139_Sp_Nein.             :139_Sp_Nein
140_Sp_W.           yes  :140_Sp_W
141_Sp_B.                :141_Sp_B
142_Sp_A.           yes  :142_Sp_A
143_Sp_T.                :143_Sp_T
144_Sp_GW.               :144_Sp_GW
145_Sp_S.                :145_Sp_S
146_SpStop.        k.A.  :146_SpStop
147_SpProbe_Ja.          :147_SpProbe_Ja
148_SpProbe_Nein.   yes  :148_SpProbe_Nein
149_SpProbe_S.           :149_SpProbe_S
150_Dichte.         ./.  :150_Dichte
151_sonstiger_Zusatz. sonstiges  :151_sonstiger_Zusatz
152_sonstige_SPprobe. sonstiges  :152_sonstige_SPprobe
154_VerrM_ID.       ./.  :154_VerrM_ID
155_VerrM_OD.       ./.  :155_VerrM_OD
156_VerrM_RL.       ./.  :156_VerrM_RL
157_VerrM_MA.       ./.  :157_VerrM_MA
158_VerrM_vb.       ./.  :158_VerrM_vb
159_VerrM_MNr.      ./.  :159_VerrM_MNr
200_MessNr#1. 1 aufwärts  :200_MessNr#1
201_Datum#1. 27 Apr 2018  :201_Datum#1
202_Sonde#1.        SGR  :202_Sonde#1
203_RohrÜber#1.   -1,73  :203_RohrÜber#1
204_FlüssigSP#1.  51,04  :204_FlüssigSP#1
205_FlüssigZP#1.   9_45  :205_FlüssigZP#1
206_ErrTiefe#1.   90,00  :206_ErrTiefe#1
207_TiefsterMP#1. 88,93  :207_TiefsterMP#1
208_HöchsterMP#1.  0,34  :208_HöchsterMP#1
209_Messbeginn#1.  9_32  :209_Messbeginn#1
210_MessNr#2. 2 aufwärts  :210_MessNr#2
211_Datum#2. 27 Apr 2018  :211_Datum#2
212_Sonde#2.        OBI  :212_Sonde#2
213_RohrÜber#2.   -1,02  :213_RohrÜber#2
214_FlüssigSP#2.   k.A.  :214_FlüssigSP#2
215_FlüssigZP#2.   k.A.  :215_FlüssigZP#2
216_ErrTiefe#2.   12,50  :216_ErrTiefe#2
217_TiefsterMP#2. 12,43  :217_TiefsterMP#2
218_HöchsterMP#2.  5,44  :218_HöchsterMP#2
219_Messbeginn#2. 12_10  :219_Messbeginn#2
220_MessNr#3. 3 aufwärts  :220_MessNr#3
221_Datum#3. 27 Apr 2018  :221_Datum#3
222_Sonde#3.   GR / FEL  :222_Sonde#3
223_RohrÜber#3.   -1,02  :223_RohrÜber#3
224_FlüssigSP#3.   k.A.  :224_FlüssigSP#3
225_FlüssigZP#3.   k.A.  :225_FlüssigZP#3
226_ErrTiefe#3.   39,06  :226_ErrTiefe#3
227_TiefsterMP#3. 37,99  :227_TiefsterMP#3
228_HöchsterMP#3.  2,80  :228_HöchsterMP#3
229_Messbeginn#3. 12_28  :229_Messbeginn#3
230_MessNr#4.            :230_MessNr#4
231_Datum#4.             :231_Datum#4
232_Sonde#4.             :232_Sonde#4
233_RohrÜber#4.          :233_RohrÜber#4
234_FlüssigSP#4.         :234_FlüssigSP#4
235_FlüssigZP#4.         :235_FlüssigZP#4
236_ErrTiefe#4.          :236_ErrTiefe#4
237_TiefsterMP#4.        :237_TiefsterMP#4
238_HöchsterMP#4.        :238_HöchsterMP#4
239_Messbeginn#4.        :239_Messbeginn#4
240_MessNr#5.            :240_MessNr#5
241_Datum#5.             :241_Datum#5
242_Sonde#5.             :242_Sonde#5
243_RohrÜber#5.          :243_RohrÜber#5
244_FlüssigSP#5.         :244_FlüssigSP#5
245_FlüssigZP#5.         :245_FlüssigZP#5
246_ErrTiefe#5.          :246_ErrTiefe#5
247_TiefsterMP#5.        :247_TiefsterMP#5
248_HöchsterMP#5.        :248_HöchsterMP#5
249_Messbeginn#5.        :249_Messbeginn#5
250_TeufeBM.      90,00  :250_TeufeBM
251_Messwagen. KR-GD 600  :251_Messwagen
252_Messtrupp. Orth / Helbing  :252_Messtrupp
253_Bemerkungen. OBI-Sonde ist bei 12,50 m aufgesetzt._GRFEL-Sonde ist überhalb der Wassersäule bei 39,06 m aufgesetzt, daher keine Wiederstandswerte._Die Stückelung der Schutzverrohrung ist unklar (Überstand 1,02 m gemessen, Ende Schneidschuh 6,12 m ergibt sich durch_OBI)  :253_Bemerkungen
254_Korrekturen. GR_COR / SGR_COR_ Von Bohrlocheinflüssen korrigiertes GR-Log nach (Lehmann, 2010)  :254_Korrekturen
259_Anmerkung. Interpretationen und Beurteilungen der von uns durchgeführten Messungen werden von unserem Personal nach bestem Wissen und Gewissen durchgeführt,_ohne jedoch für die Genauigkeit bzw. Richtigkeit zu garantieren. Ebenso lehnen wir jegliche Haftung oder Verantwortung für irgendwelche Verluste, Kosten oder Schäden ab, die unserem Auftraggeber dadurch entstehen können.  :259_Anmerkung
300_Run#1.            1  :300_Run#1
301_Trip#1.         ./.  :301_Trip#1
302_Gerätedaten#1.  SGR                 LogIn 2901               k.A.                      191 mm  :302_Gerätedaten#1
303_Run#2.            2  :303_Run#2
304_Trip#2.         ./.  :304_Trip#2
305_Gerätedaten#2.  OBI                 ALT QL40-OBI-2G 151105   k.A.                      86.6 mm  :305_Gerätedaten#2
306_Run#3.            3  :306_Run#3
307_Trip#3.         ./.  :307_Trip#3
308_Gerätedaten#3.  GR / FEL            LogIn GaFEL 1125004      05.11.2015 / 22.10.2015   157 / 797 mm  :308_Gerätedaten#3
309_Run#4.               :309_Run#4
310_Trip#4.              :310_Trip#4
311_Gerätedaten#4.       :311_Gerätedaten#4
312_Run#5.               :312_Run#5
313_Trip#5.              :313_Trip#5
314_Gerätedaten#5.       :314_Gerätedaten#5
315_Run#6.               :315_Run#6
316_Trip#6.              :316_Trip#6
317_Gerätedaten#6.       :317_Gerätedaten#6
318_Run#7.               :318_Run#7
319_Trip#7.              :319_Trip#7
320_Gerätedaten#7.       :320_Gerätedaten#7
321_Run#8.               :321_Run#8
322_Trip#8.              :322_Trip#8
323_Gerätedaten#8.       :323_Gerätedaten#8
324_Run#9.               :324_Run#9
325_Trip#9.              :325_Trip#9
326_Gerätedaten#9.       :326_Gerätedaten#9
327_Run#10.              :327_Run#10
328_Trip#10.             :328_Trip#10
329_Gerätedaten#10.      :329_Gerätedaten#10
330_Gerätedaten#0.  GERÄT               SONDEN NR.               LETZTE KALIBRIERUNG       ABSTAND TIEFSTER MESSPUNKT  :330_Gerätedaten#0
#------------------------------------------------------------
~OTHER
#------------------------------------------------------------
~A   MD      SGRRAW         SGR  SGRRAW_COR     SGR_COR       232TH        238U         40K       GRRAW          GR   GRRAW_COR      GR_COR
# ...
     28.9030     20.1185     25.7089     23.0735     29.4850     1.34347     1.97921    0.120872     29.5165     32.2604     27.3474     29.8897
     28.9540     26.6618     26.4069     30.5779     30.2856     1.54025     1.86957    0.138880     30.4723     33.6753     28.2330     31.2006
     29.0050     26.0831     27.0726     29.9141     31.0490     1.77196     1.70086    0.165619     36.4879     35.8882     33.8066     33.2509
     29.0560     25.9632     27.7670     29.7766     31.8454     1.97104     1.55422    0.196472     32.2152     38.2917     29.8478     35.4778
     29.1070     33.3540     28.7963     38.2530     33.0258     2.09354     1.44184    0.224281     45.0336     40.7780     41.7243     37.7814
     29.1580     28.9038     29.6122     33.1492     33.9616     2.15300     1.39835    0.249058     51.8927     42.5005     48.0793     39.3773
     29.2090     35.7380     30.3027     40.9872     34.7536     2.06723     1.39677    0.263627     44.9776     43.0190     41.6724     39.8577
     29.2600     28.7761     30.1953     33.0027     34.6304     1.89531     1.45563    0.274816     47.3388     42.8520     43.8601     39.7029
     29.3110     27.6844     29.8851     31.7507     34.2746     1.64794     1.49814    0.277116     45.2586     41.8166     41.9328     38.7436
     29.3620     30.0836     29.5213     34.5022     33.8574     1.44503     1.53124    0.279296     39.8614     40.2299     36.9321     37.2736
     29.4130     33.2880     28.9077     38.1773     33.1537     1.30370     1.52423    0.278632     34.9701     38.2793     32.4002     35.4663
     29.4640     30.3734     28.0693     34.8346     32.1921     1.22403     1.47237    0.275699     31.8779     36.5458     29.5353     33.8602
     29.5150     22.6314     27.0816     25.9555     31.0594     1.21036     1.41090    0.279237     35.7571     35.5729     33.1295     32.9588
     29.5660     23.5881     26.5326     27.0527     30.4297     1.20943     1.32458    0.286680     32.9461     34.7670     30.5250     32.2122
     29.6170     27.3613     26.0431     31.3802     29.8683     1.19058     1.23908    0.296729     34.1829     34.3219     31.6709     31.7998
     29.6680     25.2079     25.3059     28.9105     29.0229     1.11986     1.16944    0.301021     34.4078     33.7597     31.8793     31.2789
     29.7190     25.1284     24.5058     28.8192     28.1052     1.01055     1.13221    0.296323     32.7212     32.5899     30.3167     30.1951
     29.7700     26.4700     23.7357     30.3579     27.2220    0.893409     1.09354    0.278335     39.2428     31.1548     36.3589     28.8654
     29.8210     25.3149     22.7726     29.0331     26.1174    0.841992     1.03736    0.255362     32.5526     28.8512     30.1604     26.7311
     29.8720     20.5461     21.3745     23.5639     24.5140    0.873984    0.930257    0.228602     31.5405     26.2477     29.2227     24.3189
     29.9230     18.1190     19.7690     20.7803     22.6726    0.954499    0.789831    0.201417     18.8906     23.2446     17.5025     21.5365
     29.9740     18.0673     18.2081     20.7210     20.8825    0.999910    0.671942    0.176749     7.08412     20.5897     6.56352     19.0767
     30.0250     18.0501     16.5904     20.7013     19.0272    0.935569    0.628255    0.156640     20.9144     18.7842     19.3775     17.4040
     30.0760     15.6180     15.0144     17.9120     17.2197    0.745460    0.663468    0.141417     15.3485     17.1320     14.2208     15.8731
     30.1270     12.3391     13.5827     14.1514     15.5777    0.476630    0.748671    0.130515     18.5532     16.1419     17.1897     14.9557
     30.1780     10.0347     12.5557     11.5086     14.3999    0.308285    0.776531    0.131536     15.7422     15.5672     14.5853     14.4233
     30.2290     10.4859     11.8517     12.0261     13.5925    0.271209    0.715698    0.142032     16.1357     15.6921     14.9499     14.5390
     30.2800     8.87997     11.4146     10.1843     13.0911    0.359266    0.593340    0.156174     10.3449     15.8343     9.58474     14.6707
     30.3310     12.4752     11.4015     14.3076     13.0762    0.562903    0.421774    0.169812     14.6176     16.1544     13.5435     14.9673
     30.3820     9.95756     11.5979     11.4201     13.3014    0.825678    0.240188    0.176690     15.2924     16.6636     14.1686     15.4390
     30.4330     13.9349     11.9835     15.9817     13.7436     1.08316    0.109891    0.174162     19.5089     17.2882     18.0753     16.0178
     30.4840     11.1525     12.3097     12.7905     14.1178    0.547988    0.591466    0.142488     25.1311     17.6209     23.2844     16.3260
     30.5350     12.4565     12.6091     14.2861     14.4611    0.491496    0.733161    0.116353     13.9994     17.2102     12.9706     15.9455
     30.5860     14.9611     12.8280     17.1586     14.7121    0.538711    0.757353   0.0956689     20.0149     16.6589     18.5441     15.4347
     30.6370     14.4410     12.6733     16.5620     14.5347    0.571437    0.733409   0.0888800     15.1238     15.4923     14.0124     14.3539
     30.6880     11.1060     12.3645     12.7373     14.1806    0.554539    0.646967   0.0939147     19.3965     14.2914     17.9712     13.2412
     30.7390     13.3969     11.9619     15.3646     13.7189    0.517086    0.532002    0.106125     9.95139     12.7218     9.22007     11.7869
     30.7900     11.3018     11.4252     12.9618     13.1033    0.505114    0.414678    0.120010     7.75869     11.2898     7.18853     10.4601
     30.8410     11.5290     10.8298     13.2224     12.4205    0.530446    0.296204    0.129554     6.80287     10.2809     6.30298     9.52538
     30.8920     7.59437     10.2188     8.70980     11.7198    0.568156    0.216135    0.137869     7.53374     9.51247     6.98012     8.81344
     30.9430     10.8596     9.85651     12.4546     11.3042    0.561149    0.191427    0.143370     14.3927     9.12049     13.3351     8.45027
     30.9940     8.87877     9.43653     10.1829     10.8226    0.547294    0.184787    0.146620     10.2324     8.70507     9.48053     8.06537
     31.0450     8.02773     9.05375     9.20680     10.3836    0.570822    0.159574    0.145431     5.34113     8.49110     4.94864     7.86712
     31.0960     9.33977     8.83287     10.7116     10.1302    0.649068    0.117978    0.141140     5.62221     8.51609     5.20904     7.89026
     31.1470     10.0401     8.57473     11.5148     9.83417    0.696977   0.0958870    0.126541     8.26460     8.66288     7.65724     8.02627
     31.1980     9.17952     8.30132     10.5278     9.52061    0.474856    0.271556    0.104708     8.60196     8.70505     7.96980     8.06534
     31.2490     5.20247     7.95059     5.96660     9.11836    0.499861    0.255768   0.0937264     12.8186     8.70816     11.8766     8.06823
     31.3000     7.99083     7.81409     9.16450     8.96181    0.519296    0.223439   0.0902477     8.32090     8.63788     7.70943     8.00311
     31.3510     8.48678     7.77100     9.73330     8.91240    0.529405    0.184271   0.0978493     9.33283     8.65193     8.64702     8.01613
     31.4020     6.03639     7.61430     6.92300     8.73267    0.503131    0.133092    0.115064     7.87115     8.70189     7.29273     8.06243
     31.4530     8.00165     7.55085     9.17690     8.65991    0.438959   0.0867294    0.139534     5.95955     8.75499     5.52159     8.11163
     31.5040     7.98111     7.62662     9.15340     8.74680    0.370495   0.0615659    0.161645     8.26460     8.90179     7.65724     8.24765
     31.5550     7.25751     7.77294     8.32350     8.91462    0.276789    0.135282    0.167899     8.60195     9.08452     7.96980     8.41695
     31.6060     10.4659     7.99549     12.0031     9.16986    0.236065    0.243746    0.157383     9.44528     9.36406     8.75120     8.67595
     31.6570     4.85557     8.14794     5.56870     9.34470    0.273518    0.366372    0.137552     14.6176     9.58584     13.5435     8.88142
     31.7080     6.09031     8.54584     6.98490     9.80105    0.440327    0.432428    0.115659     10.2324     9.54055     9.48053     8.83947
