#------------------------------------------------------------
~VERSION INFORMATION
VERS.               2.0  :CWLS LOG ASCII STANDARD - VERSION 2.0
WRAP.                NO  :ONE LINE PER DEPTH STEP
#------------------------------------------------------------
~WELL INFORMATION
STRT.M         0.343000  :FIRST INDEX VALUE
STOP.M          88.9300  :LAST INDEX VALUE
STEP.M        0.0510000  :STEP
NULL.           -999.25  :NULL VALUE
COMP.                    :COMPANY
WELL.                    :WELL
FLD.                     :FIELD
LOC.                     :LOCATION
SRVC.                    :
CTRY. Germany            :COUNTRY
STAT.                    :STATE
CNTY.                    :
DATE.                    :DATE
API.                     :
#------------------------------------------------------------
~CURVE INFORMATION
MD                       :DEPTH
SGRRAW.API               :SGRRaw
SGR.API                  :SGR
SGRRAW_COR.API           :SGRRAW_COR
SGR_COR.API              :SGR_COR
232TH.PPM                :232TH
238U.PPM                 :238U
40K.%                    :40K
GRRAW.API                :GRRaw
GR.API                   :GR
GRRAW_COR.API            :GRRAW_COR
GR_COR.API               :GR_COR
#------------------------------------------------------------
~PARAMETER INFORMATION
001_Bohrungsnummer. 314532  :001_Bohrungsnummer
002_Firma. Geologischer Dienst NRW_Fachbereich 34_Geophysik, Landeserdbebendienst_34.23 Bohrlochgeophysik_De-Greiff-Straße 195_47803 Krefeld  :002_Firma
003_GR.                  :003_GR
004_GR_FEL.         yes  :004_GR_FEL
005_GR_SAL_TEMP.         :005_GR_SAL_TEMP
006_SGR.            yes  :006_SGR
007_CAL3.                :007_CAL3
008_ORI.                 :008_ORI
009_SUSZ.                :009_SUSZ
010_OBI.            yes  :010_OBI
011_STpF.                :011_STpF
012_SAMP.                :012_SAMP
013_Log_Feld.            :013_Log_Feld
014_Log_End.        yes  :014_Log_End
015_Teufenskala.    200  :015_Teufenskala
016_Bohrung. IGL Hastenrath_Albertstraße 57_52249 Eschweiler  :016_Bohrung
017_TK25. 5203 Stolberg (Rheinland)  :017_TK25
018_Land.   Deutschland  :018_Land
019_Koordinaten#1. 32U 307542,00 +/- 5 m  :019_Koordinaten#1
020_Koordinaten#2. UTM 5629294,00 +/- 5 m  :020_Koordinaten#2
021_Koordinaten#3. (UTM 32.Zone ETRS89)  :021_Koordinaten#3
022_Hoehe.       233,00  :022_Hoehe
023_DGPS_Ja.             :023_DGPS_Ja
024_DGPS_Nein.      yes  :024_DGPS_Nein
025_Auftraggeber. Heß, O. (GD NRW)  :025_Auftraggeber
026_Bohrfirma. H. Anger's Söhne_Bohr- und Brunnenbaugesellschaft mbH_Gutenbergstr. 33_37235 Hessisch Lichtenau  :026_Bohrfirma
027_Bohrmeister.   k.A.  :027_Bohrmeister
028_Bohrungsart. Geologische Untersuchung  :028_Bohrungsart
029_Bohrungsverfahren. Kernbohrung  :029_Bohrungsverfahren
030_TeufenBez.      GOK  :030_TeufenBez
031_Messbez.      -1,73  :031_Messbez
032_Bohrbez.        GOK  :032_Bohrbez
033_Bearbeiter.          :033_Bearbeiter
034_Deklination.   1,77  :034_Deklination
100_Stand_ID.       156  :100_Stand_ID
101_Stand_OD.       178  :101_Stand_OD
102_Stand_RL.       1,5  :102_Stand_RL
103_Stand_MA.     Stahl  :103_Stand_MA
104_Stand_vb. -1,02 / 6,12  :104_Stand_vb
105_Stand_MNr.    1 - 3  :105_Stand_MNr
106_StandM_ID.      156  :106_StandM_ID
107_StandM_OD.      178  :107_StandM_OD
108_StandM_RL.     0,11  :108_StandM_RL
109_StandM_MA.    Stahl  :109_StandM_MA
110_StandM_vb. -1,02 / 6,12  :110_StandM_vb
111_StandM_MNr.   1 - 3  :111_StandM_MNr
112_Gest_ID.        126  :112_Gest_ID
113_Gest_OD.        140  :113_Gest_OD
114_Gest_RL.       3,00  :114_Gest_RL
115_Gest_MA.      Stahl  :115_Gest_MA
116_Gest_vb. -1,73 / 90,00  :116_Gest_vb
117_Gest_MNr.         1  :117_Gest_MNr
118_GestM_ID.       126  :118_GestM_ID
119_GestM_OD.       140  :119_GestM_OD
120_GestM_RL.     0,065  :120_GestM_RL
121_GestM_MA.     Stahl  :121_GestM_MA
122_GestM_vb. -1,73 / 90,00  :122_GestM_vb
123_GestM_MNr.        1  :123_GestM_MNr
124_Verr_ID.        ./.  :124_Verr_ID
125_Verr_OD.        ./.  :125_Verr_OD
126_Verr_RL.        ./.  :126_Verr_RL
127_Verr_MA.        ./.  :127_Verr_MA
128_Verr_vb.        ./.  :128_Verr_vb
129_Verr_MNr.       ./.  :129_Verr_MNr
130_oBL_ID.         146  :130_oBL_ID
134_oBL_vb. 6,12 / 90,00  :134_oBL_vb
135_oBL_MNr.      2 - 3  :135_oBL_MNr
136_MeißelA.        PCD  :136_MeißelA
137_MeißelD.        146  :137_MeißelD
138_Sp_Ja.          yes  :138_Sp_Ja
139_Sp_Nein.             :139_Sp_Nein
140_Sp_W.           yes  :140_Sp_W
141_Sp_B.                :141_Sp_B
142_Sp_A.           yes  :142_Sp_A
143_Sp_T.                :143_Sp_T
144_Sp_GW.               :144_Sp_GW
145_Sp_S.                :145_Sp_S
146_SpStop.        k.A.  :146_SpStop
147_SpProbe_Ja.          :147_SpProbe_Ja
148_SpProbe_Nein.   yes  :148_SpProbe_Nein
149_SpProbe_S.           :149_SpProbe_S
150_Dichte.         ./.  :150_Dichte
151_sonstiger_Zusatz. sonstiges  :151_sonstiger_Zusatz
152_sonstige_SPprobe. sonstiges  :152_sonstige_SPprobe
154_VerrM_ID.       ./.  :154_VerrM_ID
155_VerrM_OD.       ./.  :155_VerrM_OD
156_VerrM_RL.       ./.  :156_VerrM_RL
157_VerrM_MA.       ./.  :157_VerrM_MA
158_VerrM_vb.       ./.  :158_VerrM_vb
159_VerrM_MNr.      ./.  :159_VerrM_MNr
200_MessNr#1. 1 aufwärts  :200_MessNr#1
201_Datum#1. 27 Apr 2018  :201_Datum#1
202_Sonde#1.        SGR  :202_Sonde#1
203_RohrÜber#1.   -1,73  :203_RohrÜber#1
204_FlüssigSP#1.  51,04  :204_FlüssigSP#1
205_FlüssigZP#1.   9_45  :205_FlüssigZP#1
206_ErrTiefe#1.   90,00  :206_ErrTiefe#1
207_TiefsterMP#1. 88,93  :207_TiefsterMP#1
208_HöchsterMP#1.  0,34  :208_HöchsterMP#1
209_Messbeginn#1.  9_32  :209_Messbeginn#1
210_MessNr#2. 2 aufwärts  :210_MessNr#2
211_Datum#2. 27 Apr 2018  :211_Datum#2
212_Sonde#2.        OBI  :212_Sonde#2
213_RohrÜber#2.   -1,02  :213_RohrÜber#2
214_FlüssigSP#2.   k.A.  :214_FlüssigSP#2
215_FlüssigZP#2.   k.A.  :215_FlüssigZP#2
216_ErrTiefe#2.   12,50  :216_ErrTiefe#2
217_TiefsterMP#2. 12,43  :217_TiefsterMP#2
218_HöchsterMP#2.  5,44  :218_HöchsterMP#2
219_Messbeginn#2. 12_10  :219_Messbeginn#2
220_MessNr#3. 3 aufwärts  :220_MessNr#3
221_Datum#3. 27 Apr 2018  :221_Datum#3
222_Sonde#3.   GR / FEL  :222_Sonde#3
223_RohrÜber#3.   -1,02  :223_RohrÜber#3
224_FlüssigSP#3.   k.A.  :224_FlüssigSP#3
225_FlüssigZP#3.   k.A.  :225_FlüssigZP#3
226_ErrTiefe#3.   39,06  :226_ErrTiefe#3
227_TiefsterMP#3. 37,99  :227_TiefsterMP#3
228_HöchsterMP#3.  2,80  :228_HöchsterMP#3
229_Messbeginn#3. 12_28  :229_Messbeginn#3
230_MessNr#4.            :230_MessNr#4
231_Datum#4.             :231_Datum#4
232_Sonde#4.             :232_Sonde#4
233_RohrÜber#4.          :233_RohrÜber#4
234_FlüssigSP#4.         :234_FlüssigSP#4
235_FlüssigZP#4.         :235_FlüssigZP#4
236_ErrTiefe#4.          :236_ErrTiefe#4
237_TiefsterMP#4.        :237_TiefsterMP#4
238_HöchsterMP#4.        :238_HöchsterMP#4
239_Messbeginn#4.        :239_Messbeginn#4
240_MessNr#5.            :240_MessNr#5
241_Datum#5.             :241_Datum#5
242_Sonde#5.             :242_Sonde#5
243_RohrÜber#5.          :243_RohrÜber#5
244_FlüssigSP#5.         :244_FlüssigSP#5
245_FlüssigZP#5.         :245_FlüssigZP#5
246_ErrTiefe#5.          :246_ErrTiefe#5
247_TiefsterMP#5.        :247_TiefsterMP#5
248_HöchsterMP#5.        :248_HöchsterMP#5
249_Messbeginn#5.        :249_Messbeginn#5
250_TeufeBM.      90,00  :250_TeufeBM
251_Messwagen. KR-GD 600  :251_Messwagen
252_Messtrupp. Orth / Helbing  :252_Messtrupp
253_Bemerkungen. OBI-Sonde ist bei 12,50 m aufgesetzt._GRFEL-Sonde ist überhalb der Wassersäule bei 39,06 m aufgesetzt, daher keine Wiederstandswerte._Die Stückelung der Schutzverrohrung ist unklar (Überstand 1,02 m gemessen, Ende Schneidschuh 6,12 m ergibt sich durch_OBI)  :253_Bemerkungen
254_Korrekturen. GR_COR / SGR_COR_ Von Bohrlocheinflüssen korrigiertes GR-Log nach (Lehmann, 2010)  :254_Korrekturen
259_Anmerkung. Interpretationen und Beurteilungen der von uns durchgeführten Messungen werden von unserem Personal nach bestem Wissen und Gewissen durchgeführt,_ohne jedoch für die Genauigkeit bzw. Richtigkeit zu garantieren. Ebenso lehnen wir jegliche Haftung oder Verantwortung für irgendwelche Verluste, Kosten oder Schäden ab, die unserem Auftraggeber dadurch entstehen können.  :259_Anmerkung
300_Run#1.            1  :300_Run#1
301_Trip#1.         ./.  :301_Trip#1
302_Gerätedaten#1.  SGR                 LogIn 2901               k.A.                      191 mm  :302_Gerätedaten#1
303_Run#2.            2  :303_Run#2
304_Trip#2.         ./.  :304_Trip#2
305_Gerätedaten#2.  OBI                 ALT QL40-OBI-2G 151105   k.A.                      86.6 mm  :305_Gerätedaten#2
306_Run#3.            3  :306_Run#3
307_Trip#3.         ./.  :307_Trip#3
308_Gerätedaten#3.  GR / FEL            LogIn GaFEL 1125004      05.11.2015 / 22.10.2015   157 / 797 mm  :308_Gerätedaten#3
309_Run#4.               :309_Run#4
310_Trip#4.              :310_Trip#4
311_Gerätedaten#4.       :311_Gerätedaten#4
312_Run#5.               :312_Run#5
313_Trip#5.              :313_Trip#5
314_Gerätedaten#5.       :314_Gerätedaten#5
315_Run#6.               :315_Run#6
316_Trip#6.              :316_Trip#6
317_Gerätedaten#6.       :317_Gerätedaten#6
318_Run#7.               :318_Run#7
319_Trip#7.              :319_Trip#7
320_Gerätedaten#7.       :320_Gerätedaten#7
321_Run#8.               :321_Run#8
322_Trip#8.              :322_Trip#8
323_Gerätedaten#8.       :323_Gerätedaten#8
324_Run#9.               :324_Run#9
325_Trip#9.              :325_Trip#9
326_Gerätedaten#9.       :326_Gerätedaten#9
327_Run#10.              :327_Run#10
328_Trip#10.             :328_Trip#10
329_Gerätedaten#10.      :329_Gerätedaten#10
330_Gerätedaten#0.  GERÄT               SONDEN NR.               LETZTE KALIBRIERUNG       ABSTAND TIEFSTER MESSPUNKT  :330_Gerätedaten#0
#------------------------------------------------------------
~OTHER
#------------------------------------------------------------
~A   MD      SGRRAW         SGR  SGRRAW_COR     SGR_COR       232TH        238U         40K       GRRAW          GR   GRRAW_COR      GR_COR
# ...
     46.0390     2.82545     4.78265     3.24040     5.48511    0.575797   0.0224579   0.0481169    -999.250    -999.250    -999.250    -999.250
     46.0900     6.44233     4.73684     7.38860     5.43258    0.634489    0.000000   0.0421407    -999.250    -999.250    -999.250    -999.250
     46.1410     3.64317     4.66176     4.17830     5.34648    0.674677    0.000000   0.0366501    -999.250    -999.250    -999.250    -999.250
     46.1920     4.06860     4.64560     4.66620     5.32794    0.685758   0.0226759   0.0310902    -999.250    -999.250    -999.250    -999.250
     46.2430     6.57129     4.61964     7.53650     5.29817    0.595391    0.116888   0.0242715    -999.250    -999.250    -999.250    -999.250
     46.2940     4.46316     4.46638     5.11870     5.12240    0.443459    0.227552   0.0188999    -999.250    -999.250    -999.250    -999.250
     46.3450     2.82854     4.40364     3.24400     5.05045    0.234073    0.366035   0.0157582    -999.250    -999.250    -999.250    -999.250
     46.3960     4.86557     4.36412     5.58020     5.00512   0.0582854    0.475738   0.0143707    -999.250    -999.250    -999.250    -999.250
     46.4470     4.50649     4.31233     5.16840     4.94572    0.000000    0.506174   0.0142022    -999.250    -999.250    -999.250    -999.250
     46.4980     4.11736     4.20114     4.72210     4.81820    0.000000    0.494400   0.0134589    -999.250    -999.250    -999.250    -999.250
     46.5490     2.88095     4.06376     3.30410     4.66064    0.000000    0.483954   0.0110010    -999.250    -999.250    -999.250    -999.250
     46.6000     6.55672     4.09525     7.51980     4.69676    0.000000    0.478414  0.00732408    -999.250    -999.250    -999.250    -999.250
     46.6510     3.66729     4.02166     4.20590     4.61236    0.000000    0.476501  0.00413280    -999.250    -999.250    -999.250    -999.250
     46.7020     2.84684     3.98049     3.26500     4.56515    0.000000    0.477126  0.00268583    -999.250    -999.250    -999.250    -999.250
     46.7530     3.23173     3.98364     3.70640     4.56876    0.000000    0.478493  0.00205153    -999.250    -999.250    -999.250    -999.250
     46.8040     3.22336     4.01123     3.69680     4.60040  0.00979187    0.481585  0.000852328    -999.250    -999.250    -999.250    -999.250
     46.8550     5.26958     4.08664     6.04360     4.68688   0.0273538    0.479435    0.000000    -999.250    -999.250    -999.250    -999.250
     46.9060     4.86757     4.05121     5.58250     4.64624   0.0112983    0.481724    0.000000    -999.250    -999.250    -999.250    -999.250
     46.9570     5.67338     4.08548     6.50670     4.68554    0.000000    0.473617    0.000000    -999.250    -999.250    -999.250    -999.250
     47.0080     2.42347     4.08572     2.77940     4.68582    0.000000    0.462933    0.000000    -999.250    -999.250    -999.250    -999.250
     47.0590     2.83669     4.17690     3.25330     4.79040   0.0282557    0.456818    0.000000    -999.250    -999.250    -999.250    -999.250
     47.1100     4.05074     4.31239     4.64570     4.94578   0.0620119    0.468206  0.000604559    -999.250    -999.250    -999.250    -999.250
     47.1610     3.66830     4.49307     4.20710     5.15301   0.0783349    0.484965  0.00840436    -999.250    -999.250    -999.250    -999.250
     47.2120     5.68742     4.84277     6.52280     5.55408   0.0708523    0.504965   0.0193558    -999.250    -999.250    -999.250    -999.250
     47.2630     6.45464     5.10396     7.40270     5.85363   0.0651437    0.512418   0.0307928    -999.250    -999.250    -999.250    -999.250
     47.3140     5.27392     5.39308     6.04860     6.18522   0.0742715    0.509395   0.0417245    -999.250    -999.250    -999.250    -999.250
     47.3650     4.03635     5.67422     4.62920     6.50766   0.0876412    0.490961   0.0516650    -999.250    -999.250    -999.250    -999.250
     47.4160     6.50528     6.03509     7.46080     6.92153    0.106234    0.469564   0.0629038    -999.250    -999.250    -999.250    -999.250
     47.4670     8.15179     6.27007     9.34910     7.19101    0.131189    0.437730   0.0746977    -999.250    -999.250    -999.250    -999.250
     47.5180     3.32073     6.32218     3.80850     7.25078    0.164460    0.409683   0.0871853    -999.250    -999.250    -999.250    -999.250
     47.5690     8.24162     6.52733     9.45210     7.48606    0.189821    0.379247   0.0944598    -999.250    -999.250    -999.250    -999.250
     47.6200     7.83719     6.70248     8.98830     7.68693    0.201288    0.371209   0.0970862    -999.250    -999.250    -999.250    -999.250
     47.6710     8.10593     6.74740     9.29650     7.73846    0.194053    0.375708   0.0917145    -999.250    -999.250    -999.250    -999.250
     47.7220     4.42789     6.61340     5.07830     7.58477    0.185471    0.392398   0.0824578    -999.250    -999.250    -999.250    -999.250
     47.7730     6.05205     6.57176     6.94100     7.53702    0.133043    0.433677   0.0737363    -999.250    -999.250    -999.250    -999.250
     47.8240     6.46346     6.62257     7.41280     7.59529   0.0812983    0.479851   0.0628245    -999.250    -999.250    -999.250    -999.250
     47.8750     8.94845     6.58464     10.2628     7.55179   0.0153716    0.542051   0.0529038    -999.250    -999.250    -999.250    -999.250
     47.9260     5.71255     6.48063     6.55160     7.43251   0.0449554    0.505282   0.0544103    -999.250    -999.250    -999.250    -999.250
     47.9770     5.73394     6.45749     6.57610     7.40596    0.102190    0.441526   0.0619227    -999.250    -999.250    -999.250    -999.250
     48.0280     5.67571     6.50944     6.50940     7.46554    0.194945    0.352458   0.0701486    -999.250    -999.250    -999.250    -999.250
     48.0790     7.28036     6.54876     8.34970     7.51063    0.320743    0.260188   0.0761744    -999.250    -999.250    -999.250    -999.250
     48.1300     6.41174     6.46441     7.35350     7.41390    0.446333    0.181814   0.0763627    -999.250    -999.250    -999.250    -999.250
     48.1810     7.27638     6.37304     8.34510     7.30911    0.479217    0.188127   0.0716055    -999.250    -999.250    -999.250    -999.250
     48.2320     6.49901     6.25062     7.45360     7.16871    0.287968    0.345718   0.0619623    -999.250    -999.250    -999.250    -999.250
     48.2830     6.06531     6.14292     6.95620     7.04519    0.266105    0.385510   0.0509910    -999.250    -999.250    -999.250    -999.250
     48.3340     6.46878     6.01755     7.41890     6.90140    0.258147    0.422983   0.0386323    -999.250    -999.250    -999.250    -999.250
     48.3850     4.05687     5.88410     4.65270     6.74836    0.208434    0.486065   0.0279980    -999.250    -999.250    -999.250    -999.250
     48.4360     6.10710     5.87500     7.00410     6.73792    0.142279    0.546749   0.0224480    -999.250    -999.250    -999.250    -999.250
     48.4870     4.48658     5.82793     5.14560     6.68394    0.140337    0.558374   0.0206244    -999.250    -999.250    -999.250    -999.250
     48.5380     7.81537     5.94755     8.96330     6.82113    0.186125    0.553528   0.0180277    -999.250    -999.250    -999.250    -999.250
     48.5890     5.76029     6.00500     6.60640     6.88702    0.232269    0.554093   0.0128840    -999.250    -999.250    -999.250    -999.250
     48.6400     6.97134     6.00144     7.99530     6.88295    0.239911    0.577730  0.00671952    -999.250    -999.250    -999.250    -999.250
     48.6910     5.30965     5.94807     6.08950     6.82173    0.192557    0.628117  0.00110010    -999.250    -999.250    -999.250    -999.250
     48.7420     4.43575     5.85908     5.08730     6.71967   0.0944697    0.679435    0.000000    -999.250    -999.250    -999.250    -999.250
     48.7930     7.69747     5.85099     8.82810     6.71038    0.000000    0.729435    0.000000    -999.250    -999.250    -999.250    -999.250
     48.8440     6.89383     5.76376     7.90640     6.61034    0.000000    0.708711    0.000000    -999.250    -999.250    -999.250    -999.250
