#------------------------------------------------------------
~VERSION INFORMATION
VERS.               2.0  :CWLS LOG ASCII STANDARD - VERSION 2.0
WRAP.                NO  :ONE LINE PER DEPTH STEP
#------------------------------------------------------------
~WELL INFORMATION
STRT.M         0.343000  :FIRST INDEX VALUE
STOP.M          88.9300  :LAST INDEX VALUE
STEP.M        0.0510000  :STEP
NULL.           -999.25  :NULL VALUE
COMP.                    :COMPANY
WELL.                    :WELL
FLD.                     :FIELD
LOC.                     :LOCATION
SRVC.                    :
CTRY. Germany            :COUNTRY
STAT.                    :STATE
CNTY.                    :
DATE.                    :DATE
API.                     :
#------------------------------------------------------------
~CURVE INFORMATION
MD                       :DEPTH
SGRRAW.API               :SGRRaw
SGR.API                  :SGR
SGRRAW_COR.API           :SGRRAW_COR
SGR_COR.API              :SGR_COR
232TH.PPM                :232TH
238U.PPM                 :238U
40K.%                    :40K
GRRAW.API                :GRRaw
GR.API                   :GR
GRRAW_COR.API            :GRRAW_COR
GR_COR.API               :GR_COR
#------------------------------------------------------------
~PARAMETER INFORMATION
001_Bohrungsnummer. 314532  :001_Bohrungsnummer
002_Firma. Geologischer Dienst NRW_Fachbereich 34_Geophysik, Landeserdbebendienst_34.23 Bohrlochgeophysik_De-Greiff-Straße 195_47803 Krefeld  :002_Firma
003_GR.                  :003_GR
004_GR_FEL.         yes  :004_GR_FEL
005_GR_SAL_TEMP.         :005_GR_SAL_TEMP
006_SGR.            yes  :006_SGR
007_CAL3.                :007_CAL3
008_ORI.                 :008_ORI
009_SUSZ.                :009_SUSZ
010_OBI.            yes  :010_OBI
011_STpF.                :011_STpF
012_SAMP.                :012_SAMP
013_Log_Feld.            :013_Log_Feld
014_Log_End.        yes  :014_Log_End
015_Teufenskala.    200  :015_Teufenskala
016_Bohrung. IGL Hastenrath_Albertstraße 57_52249 Eschweiler  :016_Bohrung
017_TK25. 5203 Stolberg (Rheinland)  :017_TK25
018_Land.   Deutschland  :018_Land
019_Koordinaten#1. 32U 307542,00 +/- 5 m  :019_Koordinaten#1
020_Koordinaten#2. UTM 5629294,00 +/- 5 m  :020_Koordinaten#2
021_Koordinaten#3. (UTM 32.Zone ETRS89)  :021_Koordinaten#3
022_Hoehe.       233,00  :022_Hoehe
023_DGPS_Ja.             :023_DGPS_Ja
024_DGPS_Nein.      yes  :024_DGPS_Nein
025_Auftraggeber. Heß, O. (GD NRW)  :025_Auftraggeber
026_Bohrfirma. H. Anger's Söhne_Bohr- und Brunnenbaugesellschaft mbH_Gutenbergstr. 33_37235 Hessisch Lichtenau  :026_Bohrfirma
027_Bohrmeister.   k.A.  :027_Bohrmeister
028_Bohrungsart. Geologische Untersuchung  :028_Bohrungsart
029_Bohrungsverfahren. Kernbohrung  :029_Bohrungsverfahren
030_TeufenBez.      GOK  :030_TeufenBez
031_Messbez.      -1,73  :031_Messbez
032_Bohrbez.        GOK  :032_Bohrbez
033_Bearbeiter.          :033_Bearbeiter
034_Deklination.   1,77  :034_Deklination
100_Stand_ID.       156  :100_Stand_ID
101_Stand_OD.       178  :101_Stand_OD
102_Stand_RL.       1,5  :102_Stand_RL
103_Stand_MA.     Stahl  :103_Stand_MA
104_Stand_vb. -1,02 / 6,12  :104_Stand_vb
105_Stand_MNr.    1 - 3  :105_Stand_MNr
106_StandM_ID.      156  :106_StandM_ID
107_StandM_OD.      178  :107_StandM_OD
108_StandM_RL.     0,11  :108_StandM_RL
109_StandM_MA.    Stahl  :109_StandM_MA
110_StandM_vb. -1,02 / 6,12  :110_StandM_vb
111_StandM_MNr.   1 - 3  :111_StandM_MNr
112_Gest_ID.        126  :112_Gest_ID
113_Gest_OD.        140  :113_Gest_OD
114_Gest_RL.       3,00  :114_Gest_RL
115_Gest_MA.      Stahl  :115_Gest_MA
116_Gest_vb. -1,73 / 90,00  :116_Gest_vb
117_Gest_MNr.         1  :117_Gest_MNr
118_GestM_ID.       126  :118_GestM_ID
119_GestM_OD.       140  :119_GestM_OD
120_GestM_RL.     0,065  :120_GestM_RL
121_GestM_MA.     Stahl  :121_GestM_MA
122_GestM_vb. -1,73 / 90,00  :122_GestM_vb
123_GestM_MNr.        1  :123_GestM_MNr
124_Verr_ID.        ./.  :124_Verr_ID
125_Verr_OD.        ./.  :125_Verr_OD
126_Verr_RL.        ./.  :126_Verr_RL
127_Verr_MA.        ./.  :127_Verr_MA
128_Verr_vb.        ./.  :128_Verr_vb
129_Verr_MNr.       ./.  :129_Verr_MNr
130_oBL_ID.         146  :130_oBL_ID
134_oBL_vb. 6,12 / 90,00  :134_oBL_vb
135_oBL_MNr.      2 - 3  :135_oBL_MNr
136_MeißelA.        PCD  :136_MeißelA
137_MeißelD.        146  :137_MeißelD
138_Sp_Ja.          yes  :138_Sp_Ja
139_Sp_Nein.             :139_Sp_Nein
140_Sp_W.           yes  :140_Sp_W
141_Sp_B.                :141_Sp_B
142_Sp_A.           yes  :142_Sp_A
143_Sp_T.                :143_Sp_T
144_Sp_GW.               :144_Sp_GW
145_Sp_S.                :145_Sp_S
146_SpStop.        k.A.  :146_SpStop
147_SpProbe_Ja.          :147_SpProbe_Ja
148_SpProbe_Nein.   yes  :148_SpProbe_Nein
149_SpProbe_S.           :149_SpProbe_S
150_Dichte.         ./.  :150_Dichte
151_sonstiger_Zusatz. sonstiges  :151_sonstiger_Zusatz
152_sonstige_SPprobe. sonstiges  :152_sonstige_SPprobe
154_VerrM_ID.       ./.  :154_VerrM_ID
155_VerrM_OD.       ./.  :155_VerrM_OD
156_VerrM_RL.       ./.  :156_VerrM_RL
157_VerrM_MA.       ./.  :157_VerrM_MA
158_VerrM_vb.       ./.  :158_VerrM_vb
159_VerrM_MNr.      ./.  :159_VerrM_MNr
200_MessNr#1. 1 aufwärts  :200_MessNr#1
201_Datum#1. 27 Apr 2018  :201_Datum#1
202_Sonde#1.        SGR  :202_Sonde#1
203_RohrÜber#1.   -1,73  :203_RohrÜber#1
204_FlüssigSP#1.  51,04  :204_FlüssigSP#1
205_FlüssigZP#1.   9_45  :205_FlüssigZP#1
206_ErrTiefe#1.   90,00  :206_ErrTiefe#1
207_TiefsterMP#1. 88,93  :207_TiefsterMP#1
208_HöchsterMP#1.  0,34  :208_HöchsterMP#1
209_Messbeginn#1.  9_32  :209_Messbeginn#1
210_MessNr#2. 2 aufwärts  :210_MessNr#2
211_Datum#2. 27 Apr 2018  :211_Datum#2
212_Sonde#2.        OBI  :212_Sonde#2
213_RohrÜber#2.   -1,02  :213_RohrÜber#2
214_FlüssigSP#2.   k.A.  :214_FlüssigSP#2
215_FlüssigZP#2.   k.A.  :215_FlüssigZP#2
216_ErrTiefe#2.   12,50  :216_ErrTiefe#2
217_TiefsterMP#2. 12,43  :217_TiefsterMP#2
218_HöchsterMP#2.  5,44  :218_HöchsterMP#2
219_Messbeginn#2. 12_10  :219_Messbeginn#2
220_MessNr#3. 3 aufwärts  :220_MessNr#3
221_Datum#3. 27 Apr 2018  :221_Datum#3
222_Sonde#3.   GR / FEL  :222_Sonde#3
223_RohrÜber#3.   -1,02  :223_RohrÜber#3
224_FlüssigSP#3.   k.A.  :224_FlüssigSP#3
225_FlüssigZP#3.   k.A.  :225_FlüssigZP#3
226_ErrTiefe#3.   39,06  :226_ErrTiefe#3
227_TiefsterMP#3. 37,99  :227_TiefsterMP#3
228_HöchsterMP#3.  2,80  :228_HöchsterMP#3
229_Messbeginn#3. 12_28  :229_Messbeginn#3
230_MessNr#4.            :230_MessNr#4
231_Datum#4.             :231_Datum#4
232_Sonde#4.             :232_Sonde#4
233_RohrÜber#4.          :233_RohrÜber#4
234_FlüssigSP#4.         :234_FlüssigSP#4
235_FlüssigZP#4.         :235_FlüssigZP#4
236_ErrTiefe#4.          :236_ErrTiefe#4
237_TiefsterMP#4.        :237_TiefsterMP#4
238_HöchsterMP#4.        :238_HöchsterMP#4
239_Messbeginn#4.        :239_Messbeginn#4
240_MessNr#5.            :240_MessNr#5
241_Datum#5.             :241_Datum#5
242_Sonde#5.             :242_Sonde#5
243_RohrÜber#5.          :243_RohrÜber#5
244_FlüssigSP#5.         :244_FlüssigSP#5
245_FlüssigZP#5.         :245_FlüssigZP#5
246_ErrTiefe#5.          :246_ErrTiefe#5
247_TiefsterMP#5.        :247_TiefsterMP#5
248_HöchsterMP#5.        :248_HöchsterMP#5
249_Messbeginn#5.        :249_Messbeginn#5
250_TeufeBM.      90,00  :250_TeufeBM
251_Messwagen. KR-GD 600  :251_Messwagen
252_Messtrupp. Orth / Helbing  :252_Messtrupp
253_Bemerkungen. OBI-Sonde ist bei 12,50 m aufgesetzt._GRFEL-Sonde ist überhalb der Wassersäule bei 39,06 m aufgesetzt, daher keine Wiederstandswerte._Die Stückelung der Schutzverrohrung ist unklar (Überstand 1,02 m gemessen, Ende Schneidschuh 6,12 m ergibt sich durch_OBI)  :253_Bemerkungen
254_Korrekturen. GR_COR / SGR_COR_ Von Bohrlocheinflüssen korrigiertes GR-Log nach (Lehmann, 2010)  :254_Korrekturen
259_Anmerkung. Interpretationen und Beurteilungen der von uns durchgeführten Messungen werden von unserem Personal nach bestem Wissen und Gewissen durchgeführt,_ohne jedoch für die Genauigkeit bzw. Richtigkeit zu garantieren. Ebenso lehnen wir jegliche Haftung oder Verantwortung für irgendwelche Verluste, Kosten oder Schäden ab, die unserem Auftraggeber dadurch entstehen können.  :259_Anmerkung
300_Run#1.            1  :300_Run#1
301_Trip#1.         ./.  :301_Trip#1
302_Gerätedaten#1.  SGR                 LogIn 2901               k.A.                      191 mm  :302_Gerätedaten#1
303_Run#2.            2  :303_Run#2
304_Trip#2.         ./.  :304_Trip#2
305_Gerätedaten#2.  OBI                 ALT QL40-OBI-2G 151105   k.A.                      86.6 mm  :305_Gerätedaten#2
306_Run#3.            3  :306_Run#3
307_Trip#3.         ./.  :307_Trip#3
308_Gerätedaten#3.  GR / FEL            LogIn GaFEL 1125004      05.11.2015 / 22.10.2015   157 / 797 mm  :308_Gerätedaten#3
309_Run#4.               :309_Run#4
310_Trip#4.              :310_Trip#4
311_Gerätedaten#4.       :311_Gerätedaten#4
312_Run#5.               :312_Run#5
313_Trip#5.              :313_Trip#5
314_Gerätedaten#5.       :314_Gerätedaten#5
315_Run#6.               :315_Run#6
316_Trip#6.              :316_Trip#6
317_Gerätedaten#6.       :317_Gerätedaten#6
318_Run#7.               :318_Run#7
319_Trip#7.              :319_Trip#7
320_Gerätedaten#7.       :320_Gerätedaten#7
321_Run#8.               :321_Run#8
322_Trip#8.              :322_Trip#8
323_Gerätedaten#8.       :323_Gerätedaten#8
324_Run#9.               :324_Run#9
325_Trip#9.              :325_Trip#9
326_Gerätedaten#9.       :326_Gerätedaten#9
327_Run#10.              :327_Run#10
328_Trip#10.             :328_Trip#10
329_Gerätedaten#10.      :329_Gerätedaten#10
330_Gerätedaten#0.  GERÄT               SONDEN NR.               LETZTE KALIBRIERUNG       ABSTAND TIEFSTER MESSPUNKT  :330_Gerätedaten#0
#------------------------------------------------------------
~OTHER
#------------------------------------------------------------
~A   MD      SGRRAW         SGR  SGRRAW_COR     SGR_COR       232TH        238U         40K       GRRAW          GR   GRRAW_COR      GR_COR
# ...
     86.0230     113.588     98.8923     147.504     128.417     5.39251     4.90062     1.18086    -999.250    -999.250    -999.250    -999.250
     86.0740     113.859     104.217     147.851     135.331     5.63466     4.72047     1.30649    -999.250    -999.250    -999.250    -999.250
     86.1250     118.039     107.262     153.279     139.284     5.80021     4.39382     1.40189    -999.250    -999.250    -999.250    -999.250
     86.1760     105.829     108.250     137.422     140.567     6.04484     4.03113     1.48892    -999.250    -999.250    -999.250    -999.250
     86.2270     117.453     108.002     152.518     140.246     6.29950     3.55604     1.53289    -999.250    -999.250    -999.250    -999.250
     86.2780     103.314     106.545     134.158     138.354     6.66368     3.06499     1.55270    -999.250    -999.250    -999.250    -999.250
     86.3290     95.2068     104.721     123.629     135.984     7.07335     2.59929     1.54196    -999.250    -999.250    -999.250    -999.250
     86.3800     102.568     103.697     133.190     134.655     7.52981     2.22903     1.52478    -999.250    -999.250    -999.250    -999.250
     86.4310     108.096     102.830     140.367     133.530     7.91198     1.95379     1.50105    -999.250    -999.250    -999.250    -999.250
     86.4820     101.424     101.933     131.703     132.364     8.19039     1.76876     1.48058    -999.250    -999.250    -999.250    -999.250
     86.5330     96.3021     100.914     125.053     131.042     8.45471     1.76434     1.47082    -999.250    -999.250    -999.250    -999.250
     86.5840     102.801     100.613     133.492     130.650     8.64392     1.65763     1.45246    -999.250    -999.250    -999.250    -999.250
     86.6350     105.667     100.292     137.214     130.234     8.94190     1.59638     1.44651    -999.250    -999.250    -999.250    -999.250
     86.6860     96.9122     99.7128     125.845     129.482     9.04456     1.59348     1.41049    -999.250    -999.250    -999.250    -999.250
     86.7370     97.0375     99.3081     126.008     128.956     9.00665     1.73912     1.36961    -999.250    -999.250    -999.250    -999.250
     86.7880     92.6848     99.0093     120.355     128.568     8.76054     2.05494     1.32482    -999.250    -999.250    -999.250    -999.250
     86.8390     100.947     98.6025     131.084     128.040     8.35448     2.45526     1.28766    -999.250    -999.250    -999.250    -999.250
     86.8900     101.603     97.7627     131.936     126.949     7.82632     2.76090     1.26194    -999.250    -999.250    -999.250    -999.250
     86.9410     106.827     96.5766     138.721     125.409     7.33231     2.83835     1.25704    -999.250    -999.250    -999.250    -999.250
     86.9920     97.5350     94.8318     126.654     123.143     7.05168     2.66202     1.28417    -999.250    -999.250    -999.250    -999.250
     87.0430     89.7923     92.7959     116.600     120.500     6.93569     2.22801     1.32159    -999.250    -999.250    -999.250    -999.250
     87.0940     80.0557     90.9825     103.954     118.145     7.11563     1.73905     1.38178    -999.250    -999.250    -999.250    -999.250
     87.1450     90.0028     89.6123     116.873     116.366     7.26748     1.28088     1.40112    -999.250    -999.250    -999.250    -999.250
     87.1960     87.9373     88.2073     114.191     114.541     7.45981    0.961179     1.40062    -999.250    -999.250    -999.250    -999.250
     87.2470     87.8742     86.9328     114.109     112.886     7.70747    0.774596     1.39807    -999.250    -999.250    -999.250    -999.250
     87.2980     87.6801     85.8399     113.857     111.467     7.76055    0.676501     1.36718    -999.250    -999.250    -999.250    -999.250
     87.3490     90.5551     84.7533     117.590     110.056     7.63379    0.673627     1.32654    -999.250    -999.250    -999.250    -999.250
     87.4000     83.3827     83.3880     108.275     108.283     7.31988    0.776089     1.27640    -999.250    -999.250    -999.250    -999.250
     87.4510     77.8056     82.2137     101.034     106.758     6.95862    0.971694     1.22988    -999.250    -999.250    -999.250    -999.250
     87.5020     78.9723     81.6365     102.549     106.009     6.69365     1.23302     1.19676    -999.250    -999.250    -999.250    -999.250
     87.5530     75.4566     81.3162     97.9833     105.593     6.58244     1.52323     1.18027    -999.250    -999.250    -999.250    -999.250
     87.6040     78.0526     81.5713     101.355     105.924     6.47044     1.78132     1.15625    -999.250    -999.250    -999.250    -999.250
     87.6550     81.2824     82.1818     105.549     106.717     6.41812     2.01693     1.14696    -999.250    -999.250    -999.250    -999.250
     87.7060     93.5888     83.0487     121.532     107.843     6.33499     2.21514     1.15050    -999.250    -999.250    -999.250    -999.250
     87.7570     87.1029     83.2127     113.106     108.056     6.09097     2.33704     1.15370    -999.250    -999.250    -999.250    -999.250
     87.8080     79.2563     82.7224     102.918     107.419     5.78458     2.41223     1.17490    -999.250    -999.250    -999.250    -999.250
     87.8590     83.7526     81.7883     108.758     106.206     5.40282     2.41874     1.19856    -999.250    -999.250    -999.250    -999.250
     87.9100     81.2199     80.1643     105.467     104.097     5.07103     2.40231     1.23017    -999.250    -999.250    -999.250    -999.250
     87.9610     81.2417     77.8828     105.496     101.134     4.70111     2.31237     1.23337    -999.250    -999.250    -999.250    -999.250
     88.0120     78.4880     75.2921     101.920     97.7700    -999.250    -999.250    -999.250    -999.250    -999.250    -999.250    -999.250
     88.0630     72.8465     72.5385     94.5935     94.1942    -999.250    -999.250    -999.250    -999.250    -999.250    -999.250    -999.250
     88.1140     63.5614     69.6184     82.5375     90.4024    -999.250    -999.250    -999.250    -999.250    -999.250    -999.250    -999.250
     88.1650     67.2138     66.8886     87.2803     86.8575    -999.250    -999.250    -999.250    -999.250    -999.250    -999.250    -999.250
     88.2160     60.7202     64.4724     78.8467     83.7200    -999.250    -999.250    -999.250    -999.250    -999.250    -999.250    -999.250
     88.2670     70.0650     62.6889     90.9826     81.4041    -999.250    -999.250    -999.250    -999.250    -999.250    -999.250    -999.250
     88.3180     57.5239     60.8382     74.6975     79.0009    -999.250    -999.250    -999.250    -999.250    -999.250    -999.250    -999.250
     88.3690     52.5991     59.7955     68.3014     77.6469    -999.250    -999.250    -999.250    -999.250    -999.250    -999.250    -999.250
     88.4200     54.7148     59.8526     71.0498     77.7213    -999.250    -999.250    -999.250    -999.250    -999.250    -999.250    -999.250
     88.4710     61.9654     60.2466     80.4649     78.2330    -999.250    -999.250    -999.250    -999.250    -999.250    -999.250    -999.250
     88.5220     62.9977     60.5883     81.8057     78.6768    -999.250    -999.250    -999.250    -999.250    -999.250    -999.250    -999.250
     88.5730     56.4676     60.1200     73.3258     78.0687    -999.250    -999.250    -999.250    -999.250    -999.250    -999.250    -999.250
     88.6240     65.6491     59.1168     85.2484     76.7659    -999.250    -999.250    -999.250    -999.250    -999.250    -999.250    -999.250
     88.6750     71.9468     56.7482     93.4276     73.6902    -999.250    -999.250    -999.250    -999.250    -999.250    -999.250    -999.250
     88.7260     57.9948     52.4976     75.3090     68.1704    -999.250    -999.250    -999.250    -999.250    -999.250    -999.250    -999.250
     88.7770     54.8308     47.1021     71.2004     61.1639    -999.250    -999.250    -999.250    -999.250    -999.250    -999.250    -999.250
     88.8280     36.1207     40.9637     46.9008     53.1927    -999.250    -999.250    -999.250    -999.250    -999.250    -999.250    -999.250
